~Version Section
VERS.   2.0:  CWLS Log ASCII Standard - Version 2.0
WRAP.    NO:  One data record per depth sample.
~Well Information Section
#MNEM.UNIT      VALUE                    DESCRIPTION
#---------      ----------               -----------
STRT.M                   0               :START DEPTH
STOP.M          2540.96533               :STOP DEPTH
STEP.M               .1524               :STEP
NULL.          -999.250000               :NULL VALUE
COMP.                                    :Oil Company
WELL.             GABO-39               :Non unique well name
FLD.             
LOC.  6.625510, 5.251997             :Location
PROV.                                    :Province
SRVC.                                    :Service
DATE.           2013-08-20               :Date unloaded
UWI.         
~Curve Information Section
#MNEM.UNIT                   API CODE                 Curve Description
#---------                   ----------               -----------------
BOREHOLE-DEPTH.M                                   :DEPTH
BS_COMP.INCHES                                   :
CALI_COMP.INCHES                                   :
DRHO_COMP.G/C3                                   :
FCNL_COMP.HZ                                   :
GR_COMP.GAPI                                   :
NCNL_COMP.HZ                                   :
NPHI_COMP.V/V                                   :
RHOB_COMP.G/C3                                   :
RSHAL_COMP.OHMM                                   :
RT_COMP.OHMM                                   :
RXO_COMP.OHMM                                   :
SP_COMP.MEGV                                   :
TENS_COMP.LBF                                   :
TVDSS_COMP.M                                   :
TVD_COMP.M                                   :
~A
# ...
2151.5833    12.2500      12.5438      0.0161       104.7138     29.2803      245.6534     0.2421       2.1608       48.7541      68.9251      31.7392      -16.1999     2663.9836    2059.6343    2077.5342    
2151.7356    12.2500      12.5372      0.0119       104.3363     25.1104      261.3255     0.2492       2.1455       63.1551      90.6763      36.6193      -16.2999     2669.9929    2059.7715    2077.6714    
2151.8879    12.2500      12.5337      0.0044       104.0472     22.6689      270.0523     0.2528       2.1295       84.5307      126.5028     29.1182      -16.6995     2650.0234    2059.9087    2077.8086    
2152.0405    12.2500      12.5396      -0.0033      109.2751     20.1202      266.6642     0.2461       2.1154       115.6557     181.7051     22.5779      -16.9996     2648.0024    2060.0459    2077.9458    
2152.1929    12.2500      12.5433      -0.0068      114.9699     17.9264      272.7740     0.2361       2.1088       147.5136     238.6732     33.4404      -17.2996     2648.9988    2060.1831    2078.0830    
2152.3452    12.2500      12.5496      -0.0036      119.9941     17.8375      276.4019     0.2387       2.1160       174.9381     286.3421     46.5003      -17.1002     2661.9849    2060.3203    2078.2202    
2152.4976    12.2500      12.5466      0.0026       121.4905     17.7628      272.1066     0.2446       2.1304       199.0309     329.5349     53.7649      -16.8004     2665.9954    2060.4575    2078.3574    
2152.6501    12.2500      12.5266      0.0027       126.2600     16.9131      277.7434     0.2490       2.1331       221.2746     367.2324     47.1094      -16.2007     2656.0117    2060.5947    2078.4946    
2152.8025    12.2500      12.4809      0.0027       125.7662     15.8441      278.7255     0.2494       2.1317       241.5360     403.6411     33.0789      -15.6007     2640.0188    2060.7319    2078.6318    
2152.9548    12.2500      12.4356      0.0057       121.7156     15.6107      276.1671     0.2463       2.1321       264.8150     448.6898     35.0211      -15.0007     2639.0012    2060.8691    2078.7690    
2153.1072    12.2500      12.4456      0.0099       131.2388     16.2327      277.5414     0.2412       2.1346       286.3874     493.0813     42.9829      -14.5006     2638.0012    2061.0063    2078.9062    
2153.2595    12.2500      12.4907      0.0108       133.4662     16.8791      282.4786     0.2375       2.1338       306.8582     528.3696     45.9594      -14.1005     2652.9824    2061.1433    2079.0435    
2153.4121    12.2500      12.4960      0.0070       126.7812     17.0422      292.0161     0.2374       2.1259       322.7969     555.8136     48.0952      -13.8004     2674.9741    2061.2805    2079.1807    
2153.5645    12.2500      12.4940      0.0011       135.0684     16.6450      290.8178     0.2403       2.1141       331.0917     570.0961     52.0754      -13.4005     2680.9929    2061.4177    2079.3179    
2153.7168    12.2500      12.4923      -0.0035      148.6247     15.9120      296.9459     0.2433       2.1051       332.6578     572.7637     53.7988      -12.9006     2670.0129    2061.5549    2079.4548    
2153.8691    12.2500      12.4808      -0.0038      149.9828     15.2244      303.0826     0.2443       2.1055       334.1561     568.7727     50.8219      -12.4006     2673.9954    2061.6921    2079.5920    
2154.0217    12.2500      12.4800      0.0005       145.5130     15.1288      293.9638     0.2438       2.1159       327.3047     545.7006     48.8421      -12.3001     2672.0024    2061.8293    2079.7292    
2154.1741    12.2500      12.4800      0.0074       147.7044     15.3981      282.5037     0.2434       2.1282       310.4353     503.4636     46.9076      -12.5996     2668.0046    2061.9663    2079.8665    
2154.3264    12.2500      12.4800      0.0129       140.4460     15.7027      280.2838     0.2437       2.1361       284.4473     441.5780     46.1005      -12.4002     2670.9966    2062.1035    2080.0034    
2154.4788    12.2500      12.4800      0.0149       128.8730     15.9387      279.8325     0.2433       2.1388       251.7873     364.8432     47.9711      -11.9006     2665.0071    2062.2407    2080.1406    
2154.6313    12.2500      12.4644      0.0131       126.8462     16.1421      278.5562     0.2416       2.1378       214.8578     287.9201     47.5396      -11.5005     2660.0059    2062.3777    2080.2778    
2154.7837    12.2500      12.4337      0.0078       128.3888     16.3455      274.2434     0.2409       2.1349       184.9802     231.3275     43.7291      -11.0006     2666.9917    2062.5149    2080.4150    
2154.9360    12.2500      12.4128      0.0014       125.6692     16.7724      274.9952     0.2432       2.1335       159.2765     187.1836     41.8450      -10.9001     2662.0059    2062.6521    2080.5520    
2155.0884    12.2500      12.4007      -0.0043      126.0854     17.4328      275.2770     0.2459       2.1380       135.7231     153.2195     40.8010      -10.7002     2663.9976    2062.7893    2080.6892    
2155.2407    12.2500      12.4243      -0.0056      128.8561     19.3162      271.8946     0.2465       2.1513       110.2666     120.6649     39.8507      -10.5002     2672.9895    2062.9265    2080.8264    
2155.3933    12.2500      12.4821      -0.0009      128.5784     23.6199      271.7385     0.2487       2.1721       82.4669      87.8572      38.9952      -9.6011      2680.9905    2063.0635    2080.9634    
2155.5457    12.2500      12.5300      0.0078       125.0744     31.0147      282.7370     0.2619       2.1930       55.5171      57.3540      38.8205      -8.7011      2677.0046    2063.2007    2081.1006    
2155.6980    12.2500      12.5365      0.0165       128.8900     39.7241      291.0683     0.2909       2.2037       33.1425      32.6970      36.1750      -7.8011      2687.9871    2063.3376    2081.2378    
2155.8503    12.2500      12.5378      0.0224       129.4174     45.0953      278.6708     0.3219       2.2004       18.1593      17.1429      26.3241      -7.1008      2686.0024    2063.4749    2081.3748    
2156.0029    12.2500      12.5544      0.0270       126.8546     44.4168      272.7258     0.3301       2.1910       14.9679      13.7826      18.3297      -7.0001      2682.0046    2063.6118    2081.5120    
2156.1553    12.2500      12.6437      0.0320       122.2086     39.2717      281.9813     0.3146       2.1850       15.6464      14.3492      12.1635      -8.7979      2695.9834    2063.7490    2081.6489    
2156.3076    12.2500      12.7622      0.0348       123.8106     33.5692      280.6110     0.2945       2.1810       17.5180      16.1551      10.1937      -11.2971     2696.9988    2063.8860    2081.7861    
2156.4600    12.2500      12.8003      0.0346       128.6545     29.8013      281.6082     0.2791       2.1738       19.5321      18.1377      14.4715      -13.5973     2706.9883    2064.0232    2081.9231    
2156.6123    12.2500      12.7939      0.0345       127.8935     28.9424      286.0260     0.2659       2.1644       21.5410      20.1468      21.2752      -15.8973     2681.0308    2064.1604    2082.0603    
2156.7649    12.2500      12.9366      0.0350       129.3616     33.1630      282.5900     0.2568       2.1562       23.3493      22.0303      23.4389      -17.0986     2641.0474    2064.2974    2082.1975    
2156.9172    12.2500      12.9701      0.0319       130.3309     42.5827      287.1508     0.2601       2.1482       24.4974      23.3357      26.5901      -17.8991     2636.0059    2064.4346    2082.3345    
2157.0696    12.2500      12.6122      0.0229       127.5658     51.1461      283.7540     0.2766       2.1371       25.1956      24.2507      28.1544      -18.1996     2629.0083    2064.5715    2082.4717    
2157.2219    12.2500      12.4221      0.0115       129.3729     52.6955      289.0562     0.2958       2.1241       25.9571      25.3401      23.2636      -18.2999     2631.9963    2064.7085    2082.6086    
2157.3745    12.2500      12.4188      0.0026       137.0300     47.3033      303.1123     0.3036       2.1133       27.2762      27.1786      20.1521      -18.9992     2663.9622    2064.8457    2082.7456    
