~Version Section
VERS.   2.0:  CWLS Log ASCII Standard - Version 2.0
WRAP.    NO:  One data record per depth sample.
~Well Information Section
#MNEM.UNIT      VALUE                    DESCRIPTION
#---------      ----------               -----------
STRT.M                   0               :START DEPTH
STOP.M          2540.96533               :STOP DEPTH
STEP.M               .1524               :STEP
NULL.          -999.250000               :NULL VALUE
COMP.                                    :Oil Company
WELL.             GABO-39               :Non unique well name
FLD.             
LOC.  6.625510, 5.251997             :Location
PROV.                                    :Province
SRVC.                                    :Service
DATE.           2013-08-20               :Date unloaded
UWI.         
~Curve Information Section
#MNEM.UNIT                   API CODE                 Curve Description
#---------                   ----------               -----------------
BOREHOLE-DEPTH.M                                   :DEPTH
BS_COMP.INCHES                                   :
CALI_COMP.INCHES                                   :
DRHO_COMP.G/C3                                   :
FCNL_COMP.HZ                                   :
GR_COMP.GAPI                                   :
NCNL_COMP.HZ                                   :
NPHI_COMP.V/V                                   :
RHOB_COMP.G/C3                                   :
RSHAL_COMP.OHMM                                   :
RT_COMP.OHMM                                   :
RXO_COMP.OHMM                                   :
SP_COMP.MEGV                                   :
TENS_COMP.LBF                                   :
TVDSS_COMP.M                                   :
TVD_COMP.M                                   :
~A
# ...
1747.4185    12.2500      13.4943      0.0478       125.8319     72.3997      275.0003     0.4756       2.2196       5.1636       6.6210       6.5332       10.7999      2263.9985    1689.5864    1707.4865    
1747.5708    12.2500      13.5644      0.0470       122.6606     75.4996      275.0000     0.5064       2.2216       4.7858       6.1227       4.8986       11.2999      2253.0012    1689.7284    1707.6284    
1747.7233    12.2500      13.5024      0.0478       121.8001     78.6996      268.1258     0.5391       2.2238       4.2853       5.4323       4.0406       11.8999      2252.0000    1689.8704    1707.7704    
1747.8756    12.2500      13.3339      0.0521       121.8000     81.8996      249.5803     0.5639       2.2252       3.7163       4.6684       3.7729       12.3000      2253.9998    1690.0125    1707.9124    
1748.0281    12.2500      13.2754      0.0604       103.4084     84.6997      235.2986     0.5751       2.2254       3.3364       4.2974       3.4546       12.5000      2248.0007    1690.1544    1708.0544    
1748.1804    12.2500      13.2414      0.0685       92.2435      87.0997      204.0350     0.5759       2.2160       3.4130       4.3666       3.2410       12.9000      2248.0000    1690.2964    1708.1964    
1748.3328    12.2500      13.1823      0.0699       81.4544      85.5002      195.9658     0.5644       2.1884       3.7342       4.7560       3.5039       12.3001      2250.9998    1690.4384    1708.3384    
1748.4852    12.2500      13.0117      0.0631       77.5884      76.5011      194.3869     0.5280       2.1485       4.4485       5.7436       3.9584       11.5001      2267.9980    1690.5804    1708.4803    
1748.6376    12.2500      12.8147      0.0530       77.9121      62.0018      205.0456     0.4716       2.1168       5.6761       7.3121       4.4413       10.5001      2267.0000    1690.7223    1708.6223    
1748.7900    12.2500      12.6599      0.0443       82.2690      49.7015      207.1794     0.4220       2.1084       7.0961       9.0779       6.4236       8.5002       2285.9978    1690.8643    1708.7643    
1748.9424    12.2500      12.6541      0.0384       86.5034      44.0007      217.6549     0.3953       2.1199       8.6289       10.8135      11.0658      6.5002       2271.0017    1691.0063    1708.9062    
1749.0948    12.2500      12.6885      0.0339       82.8988      42.7002      201.2208     0.3828       2.1321       10.0022      12.4202      10.0626      6.0001       2315.9944    1691.1483    1709.0483    
1749.2472    12.2500      12.6824      0.0262       78.9341      41.7001      186.8221     0.3647       2.1287       11.9133      14.8962      7.4730       6.4999       2306.0012    1691.2903    1709.1903    
1749.3997    12.2500      12.6692      0.0154       78.1001      40.0002      191.1792     0.3354       2.1128       14.0860      18.0205      8.6249       5.8001       2284.0027    1691.4323    1709.3323    
1749.5520    12.2500      12.7007      0.0102       80.3669      40.7999      180.0326     0.3072       2.0994       14.7519      19.0481      12.9565      5.3001       2297.9983    1691.5742    1709.4742    
1749.7045    12.2500      12.7231      0.0166       78.9338      46.4993      195.5606     0.2956       2.0932       14.2546      18.6185      14.1447      5.5000       2288.0012    1691.7162    1709.6162    
1749.8568    12.2500      12.7294      0.0304       79.9276      57.5986      222.0279     0.3134       2.0756       13.3918      17.6125      13.1603      6.8998       2259.0037    1691.8582    1709.7582    
1750.0093    12.2500      12.7966      0.0404       85.6477      69.7985      237.4669     0.3700       2.0261       11.3728      14.9568      10.2152      8.4998       2266.9990    1692.0001    1709.9001    
1750.1616    12.2500      12.8160      0.0391       85.1603      79.1988      222.3144     0.4497       1.9530       8.5189       10.9751      7.2367       9.7998       2265.0002    1692.1421    1710.0421    
1750.3140    12.2500      12.7025      0.0298       84.3001      83.0995      201.8464     0.5069       1.8934       7.2844       9.2136       6.9380       10.5999      2249.0020    1692.2841    1710.1841    
1750.4664    12.2500      12.6238      0.0228       81.5941      81.0003      199.1409     0.5053       1.8833       7.5013       9.4650       8.6912       10.6000      2291.9946    1692.4260    1710.3260    
1750.6188    12.2500      12.5706      0.0239       83.3084      72.0011      211.4046     0.4623       1.9262       8.2845       10.3355      8.1231       10.5000      2298.9990    1692.5680    1710.4680    
1750.7712    12.2500      12.4777      0.0300       79.7661      59.3016      215.5995     0.4088       1.9898       10.2352      13.0036      7.8811       8.4003       2326.9963    1692.7100    1710.6100    
1750.9236    12.2500      12.4701      0.0342       80.3671      48.4014      224.7332     0.3573       2.0397       12.7641      16.1806      10.1755      6.6002       2318.0012    1692.8519    1710.7520    
1751.0760    12.2500      12.6497      0.0358       94.9512      41.0009      228.0996     0.3153       2.0676       15.3081      19.4056      12.4665      4.9002       2327.9988    1692.9939    1710.8939    
1751.2284    12.2500      13.0112      0.0389       104.6785     36.4006      240.5296     0.2916       2.0840       17.2973      21.9785      13.9471      4.5001       2327.0002    1693.1357    1711.0358    
1751.3809    12.2500      13.2174      0.0430       101.7192     32.9005      246.3430     0.2896       2.0952       19.1397      24.5982      15.2752      4.2000       2279.0061    1693.2778    1711.1779    
1751.5332    12.2500      13.0972      0.0438       102.2694     29.8004      240.0008     0.2996       2.0988       20.3702      26.0625      15.8180      4.7999       2265.0017    1693.4198    1711.3198    
1751.6857    12.2500      13.0438      0.0373       96.2352      26.5004      251.1861     0.3012       2.0946       21.5780      27.7998      15.0313      4.8000       2257.0010    1693.5616    1711.4617    
1751.8380    12.2500      13.1111      0.0255       91.4342      24.2003      226.5032     0.2854       2.0890       22.9627      30.2021      14.2604      3.7001       2261.9993    1693.7037    1711.6038    
1751.9905    12.2500      13.0337      0.0145       87.9652      25.1999      227.7498     0.2648       2.0900       24.6602      33.2650      15.2226      4.0999       2264.9995    1693.8456    1711.7456    
1752.1428    12.2500      12.7556      0.0109       89.6326      27.8996      258.9021     0.2523       2.1001       26.3613      36.2215      16.6228      4.4000       2255.0012    1693.9875    1711.8875    
1752.2952    12.2500      12.6150      0.0151       97.4756      29.6998      289.2772     0.2517       2.1145       27.6669      38.6317      17.4203      5.0999       2217.0049    1694.1295    1712.0295    
1752.4476    12.2500      12.5695      0.0221       122.8092     29.6000      303.6700     0.2590       2.1245       28.4417      39.9888      18.2811      4.3001       2241.9968    1694.2714    1712.1714    
1752.6000    12.2500      12.5600      0.0256       138.0761     28.6001      297.0634     0.2652       2.1275       28.5742      40.0827      18.2869      4.6000       2279.9951    1694.4135    1712.3134    
1752.7524    12.2500      12.5753      0.0248       145.1319     27.5001      300.5776     0.2639       2.1274       28.3128      39.2635      17.9529      5.1999       2271.0012    1694.5553    1712.4553    
1752.9048    12.2500      12.6177      0.0220       149.1401     26.3002      289.3453     0.2565       2.1270       27.7978      38.1943      17.6553      4.5001       2298.9963    1694.6971    1712.5972    
1753.0573    12.2500      12.6648      0.0173       153.5111     25.9001      288.6876     0.2488       2.1256       27.4152      37.0677      16.9142      3.4001       2266.0044    1694.8392    1712.7393    
1753.2096    12.2500      12.6970      0.0122       130.6905     27.6998      265.3469     0.2437       2.1277       26.9133      35.8068      16.9001      3.2000       2270.9993    1694.9811    1712.8811    
