~Version Section
VERS.   2.0:  CWLS Log ASCII Standard - Version 2.0
WRAP.    NO:  One data record per depth sample.
~Well Information Section
#MNEM.UNIT      VALUE                    DESCRIPTION
#---------      ----------               -----------
STRT.M                   0               :START DEPTH
STOP.M          2540.96533               :STOP DEPTH
STEP.M               .1524               :STEP
NULL.          -999.250000               :NULL VALUE
COMP.                                    :Oil Company
WELL.             GABO-39               :Non unique well name
FLD.             
LOC.  6.625510, 5.251997             :Location
PROV.                                    :Province
SRVC.                                    :Service
DATE.           2013-08-20               :Date unloaded
UWI.         
~Curve Information Section
#MNEM.UNIT                   API CODE                 Curve Description
#---------                   ----------               -----------------
BOREHOLE-DEPTH.M                                   :DEPTH
BS_COMP.INCHES                                   :
CALI_COMP.INCHES                                   :
DRHO_COMP.G/C3                                   :
FCNL_COMP.HZ                                   :
GR_COMP.GAPI                                   :
NCNL_COMP.HZ                                   :
NPHI_COMP.V/V                                   :
RHOB_COMP.G/C3                                   :
RSHAL_COMP.OHMM                                   :
RT_COMP.OHMM                                   :
RXO_COMP.OHMM                                   :
SP_COMP.MEGV                                   :
TENS_COMP.LBF                                   :
TVDSS_COMP.M                                   :
TVD_COMP.M                                   :
~A
# ...
1949.5009    12.2500      13.3803      0.0353       110.8230     23.2007      275.0060     0.2764       2.1039       12.5602      15.7762      14.9987      -7.0998      2480.9988    1876.2445    1894.1445    
1949.6532    12.2500      13.4022      0.0306       117.3239     24.3992      251.6712     0.2800       2.1061       12.7056      15.9955      15.1704      -6.8002      2466.0098    1876.3840    1894.2841    
1949.8057    12.2500      13.4916      0.0234       106.3976     28.1976      253.9516     0.2808       2.1076       12.8524      16.2171      14.9925      -6.6001      2461.0032    1876.5236    1894.4235    
1949.9580    12.2500      13.6261      0.0164       105.7309     31.8976      234.5437     0.2760       2.1155       12.9118      16.2551      15.2869      -6.4001      2452.0059    1876.6630    1894.5630    
1950.1105    12.2500      13.7014      0.0119       101.2998     32.4996      233.2196     0.2672       2.1336       12.8821      16.2178      16.1430      -5.9003      2456.9968    1876.8025    1894.7025    
1950.2628    12.2500      13.7081      0.0128       104.9352     30.4014      234.2993     0.2565       2.1617       12.7642      16.1061      17.2659      -5.8001      2457.0000    1876.9420    1894.8420    
1950.4153    12.2500      13.7492      0.0194       96.2400      29.1008      246.7888     0.2460       2.1926       12.5902      15.8865      16.5259      -5.0005      2451.0039    1877.0814    1894.9814    
1950.5676    12.2500      13.8215      0.0287       108.9918     29.7995      238.3804     0.2387       2.2160       12.5899      15.8496      14.7823      -4.1006      2447.0027    1877.2209    1895.1208    
1950.7200    12.2500      13.9307      0.0360       117.9864     29.6001      258.5807     0.2366       2.2248       12.7353      15.9592      15.8431      -4.3998      2432.0098    1877.3604    1895.2604    
1950.8724    12.2500      14.2298      0.0365       116.3527     28.2009      275.3173     0.2398       2.2189       12.9726      16.1812      18.4788      -4.9996      2435.9973    1877.4999    1895.3999    
1951.0248    12.2500      15.0239      0.0342       120.5285     27.4005      265.6624     0.2470       2.2100       13.4273      16.5199      19.8272      -5.0000      2446.9929    1877.6394    1895.5394    
1951.1772    12.2500      14.8439      0.0364       117.2599     28.2994      279.4910     0.2538       2.2097       13.8669      16.9815      20.6323      -5.0000      2451.9968    1877.7788    1895.6788    
1951.3296    12.2500      14.4619      0.0409       110.6840     29.7990      256.8896     0.2547       2.2150       14.2224      17.2973      20.8448      -5.0000      2448.0027    1877.9183    1895.8184    
1951.4821    12.2500      14.4684      0.0400       122.4455     30.8993      264.1047     0.2515       2.2132       14.4208      17.4583      21.1653      -4.7002      2447.0007    1878.0577    1895.9578    
1951.6344    12.2500      14.5386      0.0332       120.1499     32.1992      253.6006     0.2517       2.2026       14.5544      17.6597      20.9605      -4.8999      2450.9973    1878.1971    1896.0972    
1951.7869    12.2500      14.5129      0.0284       116.2369     33.6990      257.4116     0.2562       2.1923       14.6551      17.7415      19.9568      -4.9999      2438.0085    1878.3367    1896.2367    
1951.9392    12.2500      14.5132      0.0294       108.2708     34.4995      235.1707     0.2615       2.1890       14.6891      17.7421      19.0807      -5.0000      2437.0007    1878.4762    1896.3762    
1952.0917    12.2500      14.5214      0.0342       88.4191      34.1003      190.4666     0.2644       2.1912       14.6892      17.7826      19.4334      -4.8001      2437.9993    1878.6156    1896.5156    
1952.2440    12.2500      14.5438      0.0384       69.3093      33.4005      171.1220     0.2629       2.1951       14.6557      17.7828      19.3380      -4.6001      2446.9941    1878.7551    1896.6552    
1952.3965    12.2500      14.5637      0.0387       55.6495      33.5999      158.7424     0.2543       2.1980       14.6555      17.7832      18.4723      -4.3002      2440.0046    1878.8945    1896.7946    
1952.5488    12.2500      14.5401      0.0358       51.9067      34.5993      155.0883     0.2405       2.1995       14.6559      17.8656      17.9534      -3.8003      2412.0183    1879.0341    1896.9340    
1952.7012    12.2500      14.5226      0.0330       51.6002      34.2003      136.7931     0.2297       2.1999       14.7578      18.1133      18.1083      -3.6001      2412.9993    1879.1733    1897.0734    
1952.8536    12.2500      14.6747      0.0333       50.3270      31.7016      151.3030     0.2284       2.2012       15.0314      18.3656      18.9555      -3.5001      2425.9915    1879.3129    1897.2129    
1953.0060    12.2500      14.6711      0.0369       56.3711      29.2016      173.0796     0.2338       2.2043       15.3463      18.7070      19.2307      -3.1003      2436.9929    1879.4523    1897.3523    
1953.1584    12.2500      14.6702      0.0388       61.5825      28.8003      192.8465     0.2395       2.2076       15.7398      19.1428      18.9733      -3.1000      2435.0012    1879.5918    1897.4918    
1953.3108    12.2500      14.6623      0.0341       76.9119      29.3996      217.2653     0.2399       2.2095       16.1806      19.6784      19.1376      -3.3998      2426.0059    1879.7312    1897.6312    
1953.4633    12.2500      14.6029      0.0259       86.0956      29.5999      234.4419     0.2346       2.2130       16.6323      20.1822      20.7353      -3.5999      2461.9766    1879.8707    1897.7708    
1953.6156    12.2500      14.5429      0.0206       87.4991      29.7999      234.9528     0.2272       2.2228       16.7493      20.4173      21.9797      -3.5001      2440.0144    1880.0101    1897.9102    
1953.7681    12.2500      14.5285      0.0179       105.0823     29.8999      222.3520     0.2197       2.2336       16.8647      20.6530      22.2329      -3.5000      2441.9988    1880.1495    1898.0496    
1953.9204    12.2500      14.5483      0.0140       99.4099      28.7008      221.2937     0.2127       2.2376       16.8259      20.7480      24.2682      -3.3001      2438.0027    1880.2889    1898.1890    
1954.0729    12.2500      14.7592      0.0078       94.3353      27.0011      219.3333     0.2072       2.2330       16.5957      20.6064      27.0529      -3.4999      2434.0027    1880.4283    1898.3284    
1954.2252    12.2500      15.5102      0.0059       93.5410      26.7002      216.6307     0.2069       2.2284       16.2937      20.4637      26.2174      -3.7998      2424.0066    1880.5677    1898.4678    
1954.3776    12.2500      15.8068      0.0123       93.6593      27.8992      215.7023     0.2141       2.2328       16.1058      20.1364      23.1426      -3.9690      2430.9954    1880.7073    1898.6073    
1954.5300    12.2500      15.4650      0.0207       93.5409      29.8987      228.8195     0.2262       2.2413       15.7405      19.5902      20.6266      -3.9691      2428.0020    1880.8467    1898.7467    
1954.6824    12.2500      15.1276      0.0230       98.6763      31.4989      231.4016     0.2384       2.2395       15.4892      19.3646      20.0451      -3.9691      2428.0000    1880.9861    1898.8861    
1954.8348    12.2500      15.0422      0.0211       92.2776      31.6999      231.9967     0.2493       2.2269       15.4185      19.1886      20.3182      -3.9691      2426.0012    1881.1255    1899.0255    
1954.9872    12.2500      15.0523      0.0221       100.4946     30.9005      236.4190     0.2589       2.2217       15.6672      19.4096      19.8431      -3.9691      2442.9888    1881.2650    1899.1650    
1955.1396    12.2500      15.2626      0.0308       103.1779     31.1998      238.4548     0.2645       2.2368       15.8855      19.8147      20.5230      -4.0999      2428.0098    1881.4044    1899.3044    
1955.2920    12.2500      15.4845      0.0418       110.6045     34.0981      242.6808     0.2650       2.2632       16.1421      20.1358      22.2430      -4.2999      2419.0059    1881.5438    1899.4438    
