~Version Section
VERS.   2.0:  CWLS Log ASCII Standard - Version 2.0
WRAP.    NO:  One data record per depth sample.
~Well Information Section
#MNEM.UNIT      VALUE                    DESCRIPTION
#---------      ----------               -----------
STRT.M                   0               :START DEPTH
STOP.M          2540.96533               :STOP DEPTH
STEP.M               .1524               :STEP
NULL.          -999.250000               :NULL VALUE
COMP.                                    :Oil Company
WELL.             GABO-39               :Non unique well name
FLD.             
LOC.  6.625510, 5.251997             :Location
PROV.                                    :Province
SRVC.                                    :Service
DATE.           2013-08-20               :Date unloaded
UWI.         
~Curve Information Section
#MNEM.UNIT                   API CODE                 Curve Description
#---------                   ----------               -----------------
BOREHOLE-DEPTH.M                                   :DEPTH
BS_COMP.INCHES                                   :
CALI_COMP.INCHES                                   :
DRHO_COMP.G/C3                                   :
FCNL_COMP.HZ                                   :
GR_COMP.GAPI                                   :
NCNL_COMP.HZ                                   :
NPHI_COMP.V/V                                   :
RHOB_COMP.G/C3                                   :
RSHAL_COMP.OHMM                                   :
RT_COMP.OHMM                                   :
RXO_COMP.OHMM                                   :
SP_COMP.MEGV                                   :
TENS_COMP.LBF                                   :
TVDSS_COMP.M                                   :
TVD_COMP.M                                   :
~A
# ...
2205.0757    12.2500      12.2953      -0.0093      61.3070      18.7094      180.2765     0.0670       1.9726       252.3306     341.1786     36.1758      -13.3991     2669.0000    2107.5564    2125.4565    
2205.2280    12.2500      12.2810      -0.0117      70.2461      18.8318      202.4085     0.0598       1.9762       266.6677     374.9269     38.4579      -13.4999     2682.9817    2107.6924    2125.5923    
2205.3804    12.2500      12.2855      -0.0150      80.0965      19.5079      221.9666     0.0518       1.9856       281.1624     408.2439     41.1800      -13.5999     2683.9988    2107.8281    2125.7280    
2205.5327    12.2500      12.2931      -0.0190      89.8544      20.0890      231.2379     0.0454       1.9959       293.7173     434.4419     44.8663      -13.3004     2708.9673    2107.9641    2125.8640    
2205.6853    12.2500      12.2904      -0.0225      92.7618      20.2905      242.2376     0.0436       2.0036       299.2012     452.8531     47.4225      -13.3000     2748.9478    2108.0999    2125.9998    
2205.8376    12.2500      12.2985      -0.0229      101.4730     20.1157      245.0901     0.0452       2.0084       300.6270     466.6727     45.7756      -13.4997     2755.9907    2108.2356    2126.1355    
2205.9900    12.2500      12.2776      -0.0197      109.7001     19.8324      248.0274     0.0466       2.0085       306.9073     487.5468     42.0049      -13.2004     2737.0249    2108.3713    2126.2715    
2206.1423    12.2500      12.2628      -0.0172      107.2630     19.6282      239.3356     0.0459       2.0039       316.2269     518.7621     40.9275      -12.6008     2732.0066    2108.5071    2126.4072    
2206.2949    12.2500      12.2588      -0.0182      108.1093     19.6829      240.3580     0.0445       1.9994       328.0577     550.7039     43.8945      -12.2005     2699.0432    2108.6431    2126.5430    
2206.4473    12.2500      12.2735      -0.0207      105.6010     19.7000      247.7247     0.0442       1.9985       334.9432     568.7841     44.9766      -11.7007     2697.0027    2108.7788    2126.6787    
2206.5996    12.2500      12.2931      -0.0228      104.2069     18.8536      248.4912     0.0454       1.9994       338.7914     576.6404     44.2266      -10.9010     2699.9961    2108.9146    2126.8147    
2206.7520    12.2500      12.3090      -0.0244      107.9482     17.2736      250.7159     0.0469       2.0000       331.8816     558.3946     43.9546      -10.5005     2691.0117    2109.0503    2126.9504    
2206.9045    12.2500      12.3051      -0.0255      109.5487     16.1656      258.3338     0.0484       2.0000       319.8853     517.6537     43.2207      -9.9008      2703.9829    2109.1863    2127.0862    
2207.0569    12.2500      12.3054      -0.0260      108.0000     16.7102      256.6506     0.0517       2.0010       303.4350     475.4194     42.2367      -9.3008      2719.9790    2109.3220    2127.2219    
2207.2092    12.2500      12.3150      -0.0249      108.6964     18.5834      256.7810     0.0591       2.0046       292.3918     439.5277     42.6937      -8.2014      2681.0513    2109.4578    2127.3579    
2207.3616    12.2500      12.3253      -0.0229      105.1608     20.1347      255.2520     0.0721       2.0119       272.8936     389.9760     42.9534      -7.9004      2702.9712    2109.5935    2127.4934    
2207.5139    12.2500      12.3470      -0.0203      104.7505     20.3659      259.9158     0.0934       2.0238       246.5927     333.4829     46.6358      -7.1011      2717.9802    2109.7292    2127.6294    
2207.6665    12.2500      12.3593      -0.0167      107.7383     20.3106      264.6855     0.1248       2.0439       209.9088     272.9454     51.6340      -5.9016      2729.9841    2109.8650    2127.7651    
2207.8188    12.2500      12.3538      -0.0120      112.9307     22.9653      267.1764     0.1638       2.0739       165.6222     205.2026     48.5821      -4.8014      2716.0183    2110.0007    2127.9009    
2207.9712    12.2500      12.3374      -0.0063      115.0604     29.8191      259.1044     0.2037       2.1100       118.4001     136.9376     37.8422      -3.6016      2716.0000    2110.1367    2128.0366    
2208.1235    12.2500      12.3105      -0.0001      110.4748     38.6759      246.4541     0.2432       2.1463       78.8029      85.6464      30.1663      -2.6013      2716.0000    2110.2722    2128.1724    
2208.2761    12.2500      12.3006      0.0053       105.3895     45.4871      249.6364     0.2903       2.1746       49.7595      50.8246      22.5959      -1.2018      2719.9946    2110.4082    2128.3081    
2208.4285    12.2500      12.3071      0.0083       106.6858     47.3588      250.0620     0.3445       2.1825       34.8227      34.1184      17.0931      -0.1014      2715.0066    2110.5437    2128.4438    
2208.5808    12.2500      12.3098      0.0090       108.3513     44.2697      252.7348     0.3722       2.1670       31.1507      30.1003      16.0763      0.2995       2735.9724    2110.6797    2128.5796    
2208.7332    12.2500      12.2734      0.0075       106.8847     38.0005      245.3378     0.3545       2.1417       34.0424      33.8858      17.6483      0.3999       2744.9880    2110.8152    2128.7153    
2208.8857    12.2500      12.2096      0.0041       105.5418     31.3057      241.7547     0.3130       2.1206       38.1814      39.1589      36.3815      0.7995       2730.0198    2110.9512    2128.8511    
2209.0381    12.2500      12.1910      0.0009       105.3003     27.8435      249.3494     0.2792       2.1117       40.6283      42.5410      47.3606      0.8000       2727.0039    2111.0869    2128.9868    
2209.1904    12.2500      12.2483      0.0022       107.8755     29.4510      249.0238     0.2618       2.1204       40.1629      42.6398      38.3713      1.4991       2727.0000    2111.2224    2129.1226    
2209.3428    12.2500      12.2980      0.0146       105.2457     34.9069      254.2275     0.2568       2.1509       35.8797      38.6193      25.5169      2.5986       2729.9961    2111.3582    2129.2583    
2209.4951    12.2500      12.3094      0.0400       106.7987     42.7708      249.9665     0.2646       2.2065       27.4933      29.4589      20.9065      4.4975       2727.0039    2111.4939    2129.3940    
2209.6477    12.2500      12.3319      0.0687       108.3563     53.6419      244.1639     0.2922       2.2712       19.8321      20.8635      15.4993      6.5972       2736.9868    2111.6296    2129.5298    
2209.8000    12.2500      12.4198      0.0831       121.1550     67.2321      262.2573     0.3434       2.3218       13.6937      13.9192      8.8291       8.6972       2747.9856    2111.7654    2129.6653    
2209.9524    12.2500      12.4849      0.0793       118.6908     79.7335      268.7844     0.3947       2.3467       9.4347       9.3708       5.7833       10.5975      2746.0027    2111.9011    2129.8010    
2210.1047    12.2500      12.4920      0.0676       115.4418     87.2596      263.7878     0.4276       2.3540       7.4899       7.2531       5.0528       11.8983      2761.9790    2112.0369    2129.9368    
2210.2573    12.2500      12.4901      0.0591       117.4973     89.9154      265.6577     0.4448       2.3571       6.8419       6.4748       5.0479       12.9985      2757.0066    2112.1726    2130.0725    
2210.4097    12.2500      12.4900      0.0578       114.0592     90.4992      254.8892     0.4517       2.3616       6.6401       6.2400       5.3024       12.9001      2756.0012    2112.3081    2130.2083    
2210.5620    12.2500      12.5119      0.0631       106.1823     89.9070      259.1038     0.4453       2.3577       6.9992       6.5475       5.6261       12.7003      2777.9709    2112.4438    2130.3440    
2210.7144    12.2500      12.5342      0.0730       107.5762     85.4786      267.3641     0.4238       2.3355       7.6584       7.1968       6.0044       11.3019      2812.9539    2112.5796    2130.4795    
2210.8669    12.2500      12.4812      0.0816       107.7186     74.5925      259.5884     0.3944       2.2919       9.0629       8.5569       6.4964       9.4025       2784.0383    2112.7151    2130.6152    
