~Version Section
VERS.   2.0:  CWLS Log ASCII Standard - Version 2.0
WRAP.    NO:  One data record per depth sample.
~Well Information Section
#MNEM.UNIT      VALUE                    DESCRIPTION
#---------      ----------               -----------
STRT.M                   0               :START DEPTH
STOP.M          2540.96533               :STOP DEPTH
STEP.M               .1524               :STEP
NULL.          -999.250000               :NULL VALUE
COMP.                                    :Oil Company
WELL.             GABO-39               :Non unique well name
FLD.             
LOC.  6.625510, 5.251997             :Location
PROV.                                    :Province
SRVC.                                    :Service
DATE.           2013-08-20               :Date unloaded
UWI.         
~Curve Information Section
#MNEM.UNIT                   API CODE                 Curve Description
#---------                   ----------               -----------------
BOREHOLE-DEPTH.M                                   :DEPTH
BS_COMP.INCHES                                   :
CALI_COMP.INCHES                                   :
DRHO_COMP.G/C3                                   :
FCNL_COMP.HZ                                   :
GR_COMP.GAPI                                   :
NCNL_COMP.HZ                                   :
NPHI_COMP.V/V                                   :
RHOB_COMP.G/C3                                   :
RSHAL_COMP.OHMM                                   :
RT_COMP.OHMM                                   :
RXO_COMP.OHMM                                   :
SP_COMP.MEGV                                   :
TENS_COMP.LBF                                   :
TVDSS_COMP.M                                   :
TVD_COMP.M                                   :
~A
# ...
2002.9932    12.2500      12.6947      0.0203       57.0811      42.9733      157.4291     0.3344       2.0926       10.4480      12.5902      9.3507       -2.7001      2554.0000    1925.0826    1942.9827    
2003.1456    12.2500      12.7923      0.0193       55.0524      43.4423      161.0987     0.3274       2.0986       10.3994      12.5606      11.2778      -2.5002      2545.0071    1925.2216    1943.1215    
2003.2980    12.2500      12.8717      0.0212       55.6245      42.9340      159.2592     0.3193       2.1133       10.3997      12.5899      10.9437      -2.3002      2523.0173    1925.3604    1943.2603    
2003.4504    12.2500      12.9329      0.0249       50.8553      42.1852      172.7706     0.3142       2.1286       10.5199      12.7647      10.1715      -2.4998      2525.9976    1925.4990    1943.3990    
2003.6028    12.2500      12.9856      0.0274       56.2536      41.5376      165.7555     0.3131       2.1349       10.7405      13.0323      11.4033      -2.9996      2524.0015    1925.6378    1943.5378    
2003.7552    12.2500      12.8973      0.0258       65.0478      40.0090      171.1677     0.3145       2.1301       11.1422      13.4887      14.3024      -3.4996      2539.9875    1925.7766    1943.6766    
2003.9076    12.2500      12.8839      0.0236       63.8837      37.0102      172.1165     0.3143       2.1237       11.4548      13.8356      16.4983      -3.1003      2553.9890    1925.9154    1943.8154    
2004.0601    12.2500      12.9478      0.0267       63.5462      34.1078      178.3232     0.3089       2.1228       11.7484      14.2227      17.6300      -2.8002      2559.9954    1926.0541    1943.9541    
2004.2124    12.2500      12.9907      0.0338       63.1546      33.2007      177.7895     0.3000       2.1230       11.9669      14.5536      18.1080      -3.4995      2537.0181    1926.1929    1944.0929    
2004.3649    12.2500      12.8902      0.0366       64.0911      33.7905      180.2169     0.2919       2.1164       12.1050      14.7224      18.6977      -3.9687      2522.0117    1926.3317    1944.2317    
2004.5172    12.2500      12.8521      0.0326       66.9665      34.3667      187.0805     0.2863       2.1047       12.0504      14.7568      18.8798      -4.1408      2520.0015    1926.4705    1944.3704    
2004.6697    12.2500      12.9228      0.0260       68.5554      34.4999      193.1514     0.2831       2.0939       11.9948      14.7231      18.3793      -4.3126      2520.9993    1926.6093    1944.5092    
2004.8220    12.2500      12.9704      0.0197       70.1999      35.0504      197.8986     0.2835       2.0853       11.8850      14.6889      17.3055      -4.4844      2533.9897    1926.7480    1944.6479    
2004.9744    12.2500      12.9286      0.0159       76.4326      36.4188      201.8524     0.2904       2.0787       11.7497      14.5550      15.3239      -4.7421      2549.9873    1926.8867    1944.7867    
2005.1268    12.2500      12.8965      0.0158       79.0312      37.9656      197.1756     0.3018       2.0727       11.7494      14.4886      13.7044      -4.9998      2553.9968    1927.0255    1944.9255    
2005.2792    12.2500      12.9049      0.0153       74.8705      38.4718      193.8893     0.3110       2.0675       11.8302      14.6219      13.3355      -5.2998      2554.9993    1927.1642    1945.0642    
2005.4316    12.2500      12.9097      0.0136       75.4683      38.9386      206.0842     0.3146       2.0653       11.8853      14.7908      13.4713      -5.3999      2518.0291    1927.3030    1945.2030    
2005.5840    12.2500      12.9173      0.0130       75.9218      38.9514      209.6194     0.3150       2.0657       12.0226      14.9281      13.6588      -5.4999      2501.0134    1927.4417    1945.3417    
2005.7365    12.2500      12.9199      0.0130       73.4902      38.2233      204.6289     0.3145       2.0696       12.1889      15.0999      13.7088      -5.4001      2552.9590    1927.5804    1945.4805    
2005.8888    12.2500      12.9200      0.0152       76.6108      37.4654      210.2065     0.3154       2.0782       12.1622      15.1010      13.7088      -5.5998      2534.0149    1927.7192    1945.6191    
2006.0413    12.2500      12.9200      0.0181       80.6530      37.2227      206.0502     0.3196       2.0860       12.1901      15.1357      13.5709      -5.5001      2518.0127    1927.8580    1945.7581    
2006.1936    12.2500      12.9346      0.0168       77.9202      37.4353      192.4014     0.3253       2.0901       12.2750      15.2061      13.2727      -5.2002      2518.0000    1927.9967    1945.8967    
2006.3461    12.2500      13.0051      0.0109       76.0454      37.3409      193.2805     0.3273       2.0931       12.5033      15.4184      13.5691      -4.4006      2529.9905    1928.1355    1946.0355    
2006.4984    12.2500      13.0360      0.0062       69.1851      36.0928      192.0088     0.3199       2.1027       12.9416      15.9947      15.4965      -4.1002      2530.0000    1928.2742    1946.1742    
2006.6509    12.2500      13.0617      0.0051       69.6363      33.8416      198.8462     0.3005       2.1211       13.3653      16.4808      17.6487      -4.1000      2525.0039    1928.4128    1946.3129    
2006.8032    12.2500      13.1277      0.0072       68.8230      32.0776      193.4652     0.2762       2.1441       13.7083      16.8647      18.6974      -4.1000      2537.9897    1928.5518    1946.4517    
2006.9556    12.2500      12.9671      0.0109       65.6041      32.1353      177.5595     0.2547       2.1659       13.9944      17.1384      19.7346      -3.8002      2532.0046    1928.6904    1946.5905    
2007.1080    12.2500      12.8601      0.0149       57.1083      33.2179      153.9562     0.2413       2.1803       13.9952      17.1770      18.6903      -3.2005      2518.0110    1928.8291    1946.7291    
2007.2604    12.2500      12.8990      0.0189       45.1189      35.2894      134.4061     0.2362       2.1831       13.8349      16.7493      16.8842      -2.5006      2513.0039    1928.9679    1946.8679    
2007.4128    12.2500      12.9116      0.0258       38.4115      39.6879      134.9137     0.2348       2.1794       13.4578      16.2172      18.7758      -1.9005      2514.9985    1929.1066    1947.0066    
2007.5652    12.2500      12.8229      0.0417       38.1555      47.3298      147.3027     0.2324       2.1818       12.8236      15.3819      21.5408      -1.1006      2504.0088    1929.2452    1947.1453    
2007.7177    12.2500      12.8644      0.0693       45.6269      56.2195      170.7626     0.2306       2.1989       12.1341      14.4546      19.5211      -0.8002      2513.9919    1929.3840    1947.2841    
2007.8700    12.2500      13.0848      0.0942       55.4766      63.3225      186.0816     0.2364       2.2250       11.3767      13.3979      15.8896      0.3990       2532.9849    1929.5228    1947.4229    
2008.0225    12.2500      13.5269      0.1013       65.4764      67.6450      197.5065     0.2556       2.2449       10.5702      12.3904      13.5156      2.2985       2541.9929    1929.6615    1947.5615    
2008.1748    12.2500      13.6554      0.0911       68.2419      69.2917      183.0427     0.2882       2.2534       10.0702      11.7503      11.8100      3.3991       2525.0134    1929.8002    1947.7002    
2008.3273    12.2500      13.6238      0.0770       63.8941      69.4931      155.8342     0.3328       2.2564       9.6834       11.2989      10.5196      4.2993       2532.9937    1929.9388    1947.8389    
2008.4796    12.2500      13.6398      0.0696       51.1040      70.1606      144.7432     0.3735       2.2599       9.3547       10.9651      10.5269      5.1993       2528.0039    1930.0776    1947.9775    
2008.6321    12.2500      13.6640      0.0688       45.6294      72.9666      139.5120     0.3988       2.2624       9.0987       10.6413      11.6749      6.0993       2518.0081    1930.2163    1948.1163    
2008.7844    12.2500      13.6770      0.0712       42.1239      77.6330      158.3600     0.4128       2.2644       8.7098       10.2330      10.7878      7.2990       2508.0081    1930.3550    1948.2550    
