~Version Section
VERS.   2.0:  CWLS Log ASCII Standard - Version 2.0
WRAP.    NO:  One data record per depth sample.
~Well Information Section
#MNEM.UNIT      VALUE                    DESCRIPTION
#---------      ----------               -----------
STRT.M                   0               :START DEPTH
STOP.M          2540.96533               :STOP DEPTH
STEP.M               .1524               :STEP
NULL.          -999.250000               :NULL VALUE
COMP.                                    :Oil Company
WELL.             GABO-39               :Non unique well name
FLD.             
LOC.  6.625510, 5.251997             :Location
PROV.                                    :Province
SRVC.                                    :Service
DATE.           2013-08-20               :Date unloaded
UWI.         
~Curve Information Section
#MNEM.UNIT                   API CODE                 Curve Description
#---------                   ----------               -----------------
BOREHOLE-DEPTH.M                                   :DEPTH
BS_COMP.INCHES                                   :
CALI_COMP.INCHES                                   :
DRHO_COMP.G/C3                                   :
FCNL_COMP.HZ                                   :
GR_COMP.GAPI                                   :
NCNL_COMP.HZ                                   :
NPHI_COMP.V/V                                   :
RHOB_COMP.G/C3                                   :
RSHAL_COMP.OHMM                                   :
RT_COMP.OHMM                                   :
RXO_COMP.OHMM                                   :
SP_COMP.MEGV                                   :
TENS_COMP.LBF                                   :
TVDSS_COMP.M                                   :
TVD_COMP.M                                   :
~A
# ...
2104.0344    12.2500      12.7628      0.0428       73.6003      35.5390      194.7897     0.2222       2.1767       11.5340      14.0601      20.0446      -12.9001     2615.9917    2016.7069    2034.6069    
2104.1868    12.2500      12.7628      0.0462       69.7540      40.9085      189.7006     0.2219       2.1864       11.2461      13.6769      19.1904      -12.8001     2601.0156    2016.8447    2034.7448    
2104.3391    12.2500      12.8133      0.0463       67.3658      46.5020      182.2422     0.2261       2.1862       10.9148      13.1228      18.3797      -12.8000     2609.9905    2016.9825    2034.8824    
2104.4917    12.2500      12.8711      0.0434       72.9083      51.7055      193.1916     0.2349       2.1798       10.5934      12.6198      17.9535      -12.3005     2609.0010    2017.1202    2035.0201    
2104.6440    12.2500      12.9086      0.0368       70.7211      56.6199      207.4695     0.2490       2.1692       10.3998      12.3321      16.9893      -11.8005     2588.0220    2017.2581    2035.1580    
2104.7964    12.2500      12.9988      0.0263       73.0367      61.7135      204.4797     0.2672       2.1540       10.3041      12.2182      16.2849      -11.4004     2590.9968    2017.3958    2035.2958    
2104.9487    12.2500      13.1758      0.0163       74.8419      66.4209      199.7666     0.2875       2.1399       10.2319      12.1331      16.1437      -10.8006     2603.9863    2017.5336    2035.4336    
2105.1013    12.2500      13.1514      0.0093       71.3084      70.2382      195.5747     0.3097       2.1341       9.9091       11.8579      15.9543      -9.7012      2591.0137    2017.6713    2035.5713    
2105.2537    12.2500      13.1071      0.0106       67.7849      73.6448      193.6631     0.3282       2.1417       9.6824       11.5608      16.0749      -8.3015      2590.0010    2017.8091    2035.7091    
2105.4060    12.2500      13.1335      0.0272       68.6241      76.9418      187.7171     0.3403       2.1616       9.3111       11.1175      16.7591      -6.2022      2590.0000    2017.9469    2035.8469    
2105.5583    12.2500      13.1354      0.0616       68.3859      79.5559      198.6291     0.3495       2.1879       8.8514       10.6172      14.4438      -0.0065      2581.0095    2018.0847    2035.9847    
2105.7109    12.2500      13.1834      0.1027       72.1601      81.6638      210.5031     0.3601       2.2157       8.3569       10.0469      10.6602      -1.8980      2585.9949    2018.2224    2036.1224    
2105.8633    12.2500      13.4462      0.1320       81.7088      84.9458      214.7222     0.3715       2.2384       7.9436       9.5065       8.9530       -0.3017      2607.9768    2018.3602    2036.2603    
2106.0156    12.2500      13.7258      0.1376       81.5002      91.9848      213.6028     0.3852       2.2528       7.5001       8.9554       8.7690       0.7988       2602.0063    2018.4980    2036.3979    
2106.1680    12.2500      13.8859      0.1259       83.5720      102.9104     221.8507     0.4067       2.2620       7.2123       8.6708       8.1686       1.8988       2588.0146    2018.6357    2036.5358    
2106.3203    12.2500      14.2053      0.1133       82.1890      113.7230     219.4634     0.4355       2.2681       7.1295       8.5908       7.9975       2.3995       2609.9768    2018.7736    2036.6735    
2106.4729    12.2500      14.1930      0.1093       86.2457      119.4081     226.2117     0.4574       2.2659       7.2447       8.6504       8.8731       1.7007       2587.0242    2018.9113    2036.8113    
2106.6252    12.2500      14.0305      0.1097       92.7900      117.1430     219.7880     0.4604       2.2529       7.4646       8.8924       9.5823       0.5013       2587.9990    2019.0491    2036.9491    
2106.7776    12.2500      13.9547      0.1060       87.1934      109.2349     211.5321     0.4517       2.2383       7.7626       9.2896       9.7273       -0.0994      2597.9895    2019.1868    2037.0868    
2106.9299    12.2500      13.9276      0.0956       78.9228      100.8369     195.2671     0.4453       2.2348       8.1654       9.7495       9.5813       -0.1999      2598.9990    2019.3246    2037.2246    
2107.0825    12.2500      13.9139      0.0815       69.4475      94.7018      187.1569     0.4396       2.2449       8.5690       10.2317      9.9591       -0.0002      2589.0105    2019.4623    2037.3623    
2107.2349    12.2500      13.9103      0.0672       67.7616      90.5668      189.8643     0.4206       2.2574       8.7493       10.5672      10.8497      -1.2986      2598.9895    2019.6001    2037.5001    
2107.3872    12.2500      13.8506      0.0525       68.3207      87.5501      188.8409     0.3892       2.2610       8.8510       10.7637      11.9247      -1.7995      2590.0095    2019.7379    2037.6379    
2107.5396    12.2500      13.8291      0.0429       65.2299      86.7138      176.7783     0.3635       2.2604       8.9527       10.7895      12.3215      -1.8999      2590.0000    2019.8756    2037.7756    
2107.6921    12.2500      13.7836      0.0428       63.5106      87.4875      170.7408     0.3560       2.2693       8.8721       10.8144      11.8335      -1.7002      2597.9915    2020.0134    2037.9135    
2107.8445    12.2500      13.8279      0.0525       62.7840      87.4016      179.9591     0.3620       2.2907       8.8927       10.8651      11.5438      -1.7000      2600.9968    2020.1511    2038.0511    
2107.9968    12.2500      13.7912      0.0645       63.4114      84.4445      189.9816     0.3708       2.3137       9.0791       11.1183      12.2376      -2.3993      2614.9854    2020.2889    2038.1888    
2108.1492    12.2500      13.8288      0.0692       70.9920      80.1686      205.2027     0.3764       2.3167       9.5053       11.6678      14.1308      -3.1992      2631.9822    2020.4268    2038.3267    
2108.3015    12.2500      13.8704      0.0634       71.1639      78.0334      202.5653     0.3793       2.2901       9.8852       12.2730      15.9571      -3.4997      2627.0054    2020.5645    2038.4644    
2108.4541    12.2500      13.8794      0.0511       78.4142      78.3936      207.2295     0.3820       2.2471       10.2797      12.7056      16.6009      -3.5000      2607.0210    2020.7021    2038.6022    
2108.6064    12.2500      13.8734      0.0405       73.1774      78.9906      204.1283     0.3827       2.2130       10.6651      13.2114      16.6724      -3.5000      2608.9978    2020.8398    2038.7399    
2108.7588    12.2500      13.8177      0.0359       76.7853      78.3103      200.5546     0.3758       2.1996       10.9389      13.4892      16.4770      -3.3002      2609.0000    2020.9777    2038.8777    
2108.9111    12.2500      13.8120      0.0351       74.2371      77.0209      199.1909     0.3647       2.1998       11.1172      13.7406      15.8386      -3.2001      2605.0042    2021.1154    2039.0154    
2109.0637    12.2500      13.8192      0.0337       73.3125      76.9016      197.2793     0.3597       2.1996       11.3233      14.0920      16.0071      -3.4997      2608.9958    2021.2532    2039.1532    
2109.2161    12.2500      13.8200      0.0304       68.9577      78.8690      193.4610     0.3638       2.1925       11.4277      14.3199      17.1979      -3.5000      2612.9958    2021.3909    2039.2909    
2109.3684    12.2500      13.8069      0.0265       69.5111      81.5558      190.6806     0.3678       2.1827       11.2984      14.1585      16.7183      -3.4001      2621.9905    2021.5287    2039.4287    
2109.5208    12.2500      13.8006      0.0245       69.7098      82.4853      182.1340     0.3663       2.1814       11.2198      14.0921      16.0241      -3.0004      2612.0105    2021.6664    2039.5664    
2109.6733    12.2500      13.8394      0.0260       67.6584      82.0078      196.8905     0.3635       2.1924       11.0405      13.8353      15.5420      -2.8002      2612.9990    2021.8042    2039.7042    
2109.8257    12.2500      13.9893      0.0295       71.0511      82.0984      194.3621     0.3646       2.2054       10.7406      13.4286      13.7773      -2.4004      2613.9990    2021.9419    2039.8419    
