~Version Section
VERS.   2.0:  CWLS Log ASCII Standard - Version 2.0
WRAP.    NO:  One data record per depth sample.
~Well Information Section
#MNEM.UNIT      VALUE                    DESCRIPTION
#---------      ----------               -----------
STRT.M                   0               :START DEPTH
STOP.M          2540.96533               :STOP DEPTH
STEP.M               .1524               :STEP
NULL.          -999.250000               :NULL VALUE
COMP.                                    :Oil Company
WELL.             GABO-39               :Non unique well name
FLD.             
LOC.  6.625510, 5.251997             :Location
PROV.                                    :Province
SRVC.                                    :Service
DATE.           2013-08-20               :Date unloaded
UWI.         
~Curve Information Section
#MNEM.UNIT                   API CODE                 Curve Description
#---------                   ----------               -----------------
BOREHOLE-DEPTH.M                                   :DEPTH
BS_COMP.INCHES                                   :
CALI_COMP.INCHES                                   :
DRHO_COMP.G/C3                                   :
FCNL_COMP.HZ                                   :
GR_COMP.GAPI                                   :
NCNL_COMP.HZ                                   :
NPHI_COMP.V/V                                   :
RHOB_COMP.G/C3                                   :
RSHAL_COMP.OHMM                                   :
RT_COMP.OHMM                                   :
RXO_COMP.OHMM                                   :
SP_COMP.MEGV                                   :
TENS_COMP.LBF                                   :
TVDSS_COMP.M                                   :
TVD_COMP.M                                   :
~A
# ...
1699.8696    -999.2500    -999.2500    -999.2500    -999.2500    -999.2500    -999.2500    -999.2500    -999.2500    -999.2500    -999.2500    -999.2500    -999.2500    -999.2500    1645.1958    1663.0958    
1700.0220    -999.2500    -999.2500    -999.2500    -999.2500    -999.2500    -999.2500    -999.2500    -999.2500    -999.2500    -999.2500    -999.2500    -999.2500    -999.2500    1645.3384    1663.2384    
1700.1744    12.2500      -999.2500    -999.2500    -999.2500    -999.2500    -999.2500    -999.2500    -999.2500    -999.2500    -999.2500    -999.2500    -999.2500    -999.2500    1645.4810    1663.3809    
1700.3268    12.2500      -999.2500    -999.2500    -999.2500    -999.2500    -999.2500    -999.2500    -999.2500    -999.2500    -999.2500    -999.2500    -999.2500    -999.2500    1645.6235    1663.5236    
1700.4792    12.2500      -999.2500    -999.2500    -999.2500    -999.2500    -999.2500    -999.2500    -999.2500    -999.2500    -999.2500    -999.2500    -999.2500    -999.2500    1645.7660    1663.6660    
1700.6316    12.2500      -999.2500    -999.2500    -999.2500    -999.2500    -999.2500    -999.2500    -999.2500    -999.2500    -999.2500    -999.2500    -999.2500    -999.2500    1645.9086    1663.8086    
1700.7841    12.2500      -999.2500    -999.2500    -999.2500    -999.2500    -999.2500    -999.2500    -999.2500    -999.2500    -999.2500    -999.2500    -999.2500    -999.2500    1646.0511    1663.9510    
1700.9364    12.2500      -999.2500    -999.2500    -999.2500    -999.2500    -999.2500    -999.2500    -999.2500    -999.2500    -999.2500    -999.2500    -999.2500    -999.2500    1646.1937    1664.0938    
1701.0889    12.2500      -999.2500    -999.2500    -999.2500    -999.2500    -999.2500    -999.2500    -999.2500    -999.2500    -999.2500    -999.2500    -999.2500    -999.2500    1646.3362    1664.2362    
1701.2412    12.2500      -999.2500    -999.2500    -999.2500    -999.2500    -999.2500    -999.2500    -999.2500    -999.2500    -999.2500    -999.2500    -999.2500    -999.2500    1646.4788    1664.3787    
1701.3937    12.2500      -999.2500    -999.2500    -999.2500    -999.2500    -999.2500    -999.2500    -999.2500    -999.2500    -999.2500    -999.2500    -999.2500    -999.2500    1646.6213    1664.5212    
1701.5460    12.2500      -999.2500    -999.2500    -999.2500    -999.2500    -999.2500    -999.2500    -999.2500    -999.2500    -999.2500    -999.2500    -999.2500    -999.2500    1646.7638    1664.6638    
1701.6984    12.2500      -999.2500    -999.2500    -999.2500    -999.2500    -999.2500    -999.2500    -999.2500    -999.2500    -999.2500    -999.2500    -999.2500    -999.2500    1646.9062    1664.8063    
1701.8508    12.2500      -999.2500    -999.2500    -999.2500    -999.2500    -999.2500    -999.2500    -999.2500    -999.2500    -999.2500    -999.2500    -999.2500    -999.2500    1647.0490    1664.9489    
1702.0032    12.2500      -999.2500    -999.2500    -999.2500    37.9000      -999.2500    -999.2500    -999.2500    -999.2500    -999.2500    -999.2500    -2.3000      2260.0000    1647.1914    1665.0914    
1702.1556    12.2500      -999.2500    -999.2500    -999.2500    37.1000      -999.2500    -999.2500    -999.2500    15.6674      22.9088      -999.2500    -2.7000      2252.0000    1647.3339    1665.2339    
1702.3080    12.2500      -999.2500    -999.2500    110.9062     36.4000      233.3125     -999.2500    -999.2500    16.1807      23.7141      12.2031      0.0000       2249.0000    1647.4764    1665.3763    
1702.4604    12.2500      -999.2500    -999.2500    111.3438     36.7000      217.2031     0.2717       -999.2500    16.6714      24.6021      12.7725      -1.8000      2206.0000    1647.6190    1665.5190    
1702.6128    12.2500      14.6472      -999.2500    93.0469      40.3000      215.2461     0.2770       -999.2500    16.9017      25.1149      13.4653      -1.9000      2202.0000    1647.7615    1665.6615    
1702.7653    12.2500      14.6588      0.0775       91.7578      48.0000      220.7891     0.2879       2.1660       16.5180      24.7134      14.0498      -2.5000      2192.0000    1647.9041    1665.8040    
1702.9176    12.2500      14.6925      0.0843       91.1602      57.7000      239.0469     0.3116       2.1669       15.7741      23.4395      14.0929      -2.1000      2206.0000    1648.0465    1665.9465    
1703.0701    12.2500      14.6760      0.0939       109.2188     65.7000      256.8906     0.3492       2.1657       14.5875      21.5267      13.5576      -1.8000      2219.0000    1648.1890    1666.0890    
1703.2224    12.2500      14.6940      0.1087       106.6562     70.2000      247.0625     0.3878       2.1638       13.2461      19.3680      12.2969      0.0000       2225.0000    1648.3315    1666.2316    
1703.3749    12.2500      14.6825      0.1242       110.5938     70.6000      250.2500     0.4055       2.1559       12.5069      18.0772      9.9531       0.0000       2223.0000    1648.4741    1666.3741    
1703.5272    12.2500      14.6972      0.1320       110.5938     67.0000      242.6094     0.3891       2.1381       12.7381      18.0370      8.3574       -0.3000      2212.0000    1648.6166    1666.5166    
1703.6796    12.2500      14.6828      0.1227       100.1406     60.4000      219.7812     0.3459       2.1125       13.6821      19.5499      7.7354       -0.7000      2200.0000    1648.7592    1666.6591    
1703.8320    12.2500      14.5217      0.0955       99.1172      52.1000      217.5859     0.2955       2.0945       15.7053      22.5463      7.6412       -0.6000      2198.0000    1648.9016    1666.8016    
1703.9844    12.2500      14.2976      0.0692       90.4844      44.1000      195.6562     0.2598       2.1018       18.1129      26.4233      9.4590       0.3000       2207.0000    1649.0441    1666.9441    
1704.1368    12.2500      14.1586      0.0634       79.9688      37.4000      194.1094     0.2416       2.1347       20.4150      30.1286      14.7617      0.2000       2213.0000    1649.1866    1667.0865    
1704.2892    12.2500      14.2137      0.0730       79.7422      32.3000      203.7969     0.2399       2.1681       22.1812      33.4937      19.5078      0.4000       2226.0000    1649.3291    1667.2291    
1704.4417    12.2500      14.5479      0.0755       80.6000      28.3000      213.5000     0.2485       2.1783       23.7638      36.2179      18.8965      0.9000       2220.0000    1649.4716    1667.3716    
1704.5940    12.2500      14.8391      0.0601       77.6719      26.9000      194.5000     0.2600       2.1647       24.3171      37.4879      17.2852      0.6000       2237.0000    1649.6141    1667.5142    
1704.7465    12.2500      14.9688      0.0371       72.4219      32.1000      196.4219     0.2712       2.1466       23.7648      36.6374      16.6797      0.5000       2248.0000    1649.7566    1667.6566    
1704.8988    12.2500      15.0109      0.0229       78.0078      44.5000      202.3438     0.2858       2.1386       22.3871      34.3539      16.6725      1.6000       2227.0000    1649.8990    1667.7991    
1705.0513    12.2500      15.0194      0.0193       82.9414      57.3000      222.0938     0.3113       2.1377       20.9886      31.6220      17.2573      2.1000       2215.0000    1650.0416    1667.9417    
1705.2036    12.2500      14.8511      0.0184       81.4570      62.3000      224.2422     0.3402       2.1347       19.4118      28.7119      15.6211      3.7000       2222.0000    1650.1841    1668.0841    
1705.3561    12.2500      14.7031      0.0135       90.0469      57.5000      227.2578     0.3477       2.1286       18.4994      26.7418      12.3525      3.0000       2226.0000    1650.3267    1668.2266    
1705.5084    12.2500      14.4875      0.0073       93.5000      48.2000      205.3438     0.3176       2.1302       19.1018      27.4213      11.5312      1.6000       2241.0000    1650.4691    1668.3691    
1705.6608    12.2500      14.3981      0.0071       98.2578      40.4000      218.0312     0.2728       2.1448       20.4646      29.3781      13.4023      1.0000       2224.0000    1650.6116    1668.5116    
