~Version Section
VERS.   2.0:  CWLS Log ASCII Standard - Version 2.0
WRAP.    NO:  One data record per depth sample.
~Well Information Section
#MNEM.UNIT      VALUE                    DESCRIPTION
#---------      ----------               -----------
STRT.M                   0               :START DEPTH
STOP.M          2540.96533               :STOP DEPTH
STEP.M               .1524               :STEP
NULL.          -999.250000               :NULL VALUE
COMP.                                    :Oil Company
WELL.             GABO-39               :Non unique well name
FLD.             
LOC.  6.625510, 5.251997             :Location
PROV.                                    :Province
SRVC.                                    :Service
DATE.           2013-08-20               :Date unloaded
UWI.         
~Curve Information Section
#MNEM.UNIT                   API CODE                 Curve Description
#---------                   ----------               -----------------
BOREHOLE-DEPTH.M                                   :DEPTH
BS_COMP.INCHES                                   :
CALI_COMP.INCHES                                   :
DRHO_COMP.G/C3                                   :
FCNL_COMP.HZ                                   :
GR_COMP.GAPI                                   :
NCNL_COMP.HZ                                   :
NPHI_COMP.V/V                                   :
RHOB_COMP.G/C3                                   :
RSHAL_COMP.OHMM                                   :
RT_COMP.OHMM                                   :
RXO_COMP.OHMM                                   :
SP_COMP.MEGV                                   :
TENS_COMP.LBF                                   :
TVDSS_COMP.M                                   :
TVD_COMP.M                                   :
~A
# ...
2050.5420    12.2500      12.7802      0.0260       57.8484      40.4712      168.4568     0.2967       2.1176       12.7358      16.0708      18.8276      -10.0996     2600.9990    1968.2836    1986.1836    
2050.6943    12.2500      12.7883      0.0233       56.8368      41.3771      171.9714     0.2940       2.1120       12.7646      16.2186      19.3413      -9.9002      2587.0127    1968.4218    1986.3217    
2050.8469    12.2500      12.7642      0.0214       57.0998      41.8014      171.6644     0.2821       2.1156       12.8523      16.5182      21.2073      -10.1997     2591.9954    1968.5598    1986.4598    
2050.9993    12.2500      12.7518      0.0219       55.4273      42.2306      164.7094     0.2739       2.1182       12.8227      16.5568      23.2754      -9.9003      2592.0000    1968.6980    1986.5980    
2051.1516    12.2500      12.7873      0.0237       57.4084      43.3760      166.7872     0.2777       2.1098       12.6467      16.4049      23.8227      -9.9000      2594.9973    1968.8361    1986.7361    
2051.3040    12.2500      12.8501      0.0248       55.6891      44.9224      177.3029     0.2929       2.0920       12.2750      15.9959      20.4523      -10.8991     2586.0081    1968.9742    1986.8741    
2051.4565    12.2500      12.9346      0.0250       71.6417      45.3739      213.5920     0.3087       2.0750       11.9681      15.5606      16.7806      -11.4995     2579.0063    1969.1124    1987.0125    
2051.6089    12.2500      12.9803      0.0250       92.7933      44.0032      251.6529     0.3132       2.0650       11.7499      15.2414      15.5426      -11.5999     2594.9854    1969.2505    1987.1505    
2051.7612    12.2500      12.9280      0.0254       102.7254     42.0487      257.0537     0.3080       2.0619       11.6956      15.0676      15.4171      -10.7008     2583.0110    1969.3885    1987.2886    
2051.9136    12.2500      12.8676      0.0277       110.9847     40.7043      258.5065     0.3018       2.0646       11.7769      15.2058      15.5746      -10.0006     2553.0273    1969.5267    1987.4268    
2052.0659    12.2500      12.8421      0.0305       111.4293     40.1250      271.8160     0.2973       2.0705       12.0492      15.4518      16.2006      -9.9001      2561.9917    1969.6649    1987.5649    
2052.2185    12.2500      12.8451      0.0305       109.2305     40.2294      268.2844     0.2911       2.0787       12.1066      15.5955      16.4057      -9.9000      2561.0010    1969.8030    1987.7030    
2052.3708    12.2500      12.8917      0.0280       117.8671     41.8072      268.4061     0.2849       2.0918       12.3023      15.7764      16.6014      -9.9000      2557.0037    1969.9410    1987.8411    
2052.5232    12.2500      12.9618      0.0259       117.4574     45.2741      267.5301     0.2832       2.1102       12.4446      16.0682      18.0397      -9.6003      2557.0000    1970.0792    1987.9792    
2052.6755    12.2500      12.9898      0.0272       116.4010     49.6913      266.1653     0.2889       2.1299       12.5022      16.1437      19.0440      -8.6009      2556.0010    1970.2173    1988.1173    
2052.8281    12.2500      12.9790      0.0333       114.7300     53.9727      250.0147     0.3000       2.1461       12.4741      16.2552      17.5814      -7.4011      2552.0037    1970.3555    1988.2555    
2052.9805    12.2500      12.9501      0.0422       110.0980     57.2470      235.2946     0.3087       2.1571       12.5014      16.3294      15.8356      -6.8005      2557.9946    1970.4937    1988.3936    
2053.1328    12.2500      12.9005      0.0508       102.9518     58.9564      247.8323     0.3116       2.1625       12.2746      16.1798      14.9080      -6.3005      2554.0037    1970.6317    1988.5317    
2053.2852    12.2500      12.9242      0.0548       104.4439     59.0517      276.7861     0.3151       2.1598       12.0506      15.7770      14.4048      -6.0003      2561.9927    1970.7698    1988.6698    
2053.4377    12.2500      13.0374      0.0523       122.3275     58.7491      291.1431     0.3271       2.1506       11.8306      15.4885      14.0028      -5.2007      2566.9954    1970.9080    1988.8079    
2053.5901    12.2500      13.1275      0.0451       127.6951     59.9911      292.4636     0.3419       2.1439       11.6149      15.2061      13.4859      -4.6005      2562.0046    1971.0460    1988.9460    
2053.7424    12.2500      13.1885      0.0368       134.4547     63.1066      302.3035     0.3461       2.1490       11.4558      14.9977      13.0907      -4.4002      2564.9973    1971.1841    1989.0841    
2053.8948    12.2500      13.1910      0.0299       138.2680     66.8325      308.0026     0.3385       2.1682       11.4286      14.9282      14.1182      -4.1003      2568.9963    1971.3221    1989.2222    
2054.0471    12.2500      13.1555      0.0246       143.5030     68.6210      297.9623     0.3326       2.1919       11.3507      14.8941      15.3358      -3.8003      2564.0046    1971.4603    1989.3604    
2054.1997    12.2500      13.1722      0.0196       142.8756     67.3624      298.6712     0.3443       2.2054       11.4028      14.9623      14.9642      -3.5003      2554.0090    1971.5985    1989.4985    
2054.3521    12.2500      13.1952      0.0154       145.9971     65.7905      285.8243     0.3495       2.2018       11.5339      15.0309      14.1190      -3.4001      2563.9910    1971.7366    1989.6366    
2054.5044    12.2500      13.2418      0.0218       139.1625     66.5266      278.5769     0.3431       2.1955       11.5611      14.9968      14.1854      -3.4999      2571.9927    1971.8748    1989.7747    
2054.6567    12.2500      13.3305      0.0448       129.0093     69.1538      238.1620     0.3321       2.2084       11.5875      14.9279      15.1163      -3.3002      2551.0193    1972.0128    1989.9128    
2054.8093    12.2500      13.4000      0.0747       114.0137     71.9505      210.3380     0.3274       2.2378       11.5603      14.8243      15.7601      -2.6006      2563.9880    1972.1509    1990.0509    
2054.9617    12.2500      13.5114      0.0955       89.7722      74.8412      206.3376     0.3342       2.2627       11.3505      14.4879      15.6993      -1.3012      2570.9937    1972.2889    1990.1890    
2055.1140    12.2500      13.6529      0.0974       82.4725      78.8089      204.0997     0.3441       2.2730       11.1939      14.1249      15.1148      -0.2010      2595.9771    1972.4271    1990.3271    
2055.2664    12.2500      13.7560      0.0858       78.7886      84.2684      228.5401     0.3485       2.2756       10.8897      13.5833      14.6293      0.4994       2588.0073    1972.5652    1990.4652    
2055.4189    12.2500      13.8532      0.0739       88.6940      89.6396      229.8504     0.3495       2.2825       10.6174      12.9729      14.3511      1.2993       2609.9797    1972.7032    1990.6033    
2055.5713    12.2500      13.9419      0.0695       91.4389      92.3975      232.4820     0.3553       2.2955       10.3761      12.4746      13.7252      1.8994       2579.0286    1972.8414    1990.7415    
2055.7236    12.2500      13.9839      0.0701       90.2902      91.2355      225.0537     0.3674       2.3100       10.2569      12.0512      12.4426      2.9990       2573.0056    1972.9795    1990.8795    
2055.8760    12.2500      13.9930      0.0705       91.7448      87.7102      225.3123     0.3861       2.3271       10.2099      11.7232      11.6526      4.3987       2557.0146    1973.1176    1991.0176    
2056.0283    12.2500      13.9409      0.0701       89.6464      85.5430      234.9442     0.4110       2.3516       10.2566      11.5886      11.2211      6.2983       2545.0110    1973.2557    1991.1556    
2056.1809    12.2500      13.8387      0.0703       92.1344      87.5840      226.9293     0.4345       2.3776       10.3273      11.6140      10.9502      7.8985       2540.0046    1973.3938    1991.2938    
2056.3333    12.2500      13.7859      0.0689       88.9560      92.4525      224.4125     0.4469       2.3899       10.3500      11.5337      9.9540       9.9981       2553.9871    1973.5319    1991.4319    
