~Version Section
VERS.   2.0:  CWLS Log ASCII Standard - Version 2.0
WRAP.    NO:  One data record per depth sample.
~Well Information Section
#MNEM.UNIT      VALUE                    DESCRIPTION
#---------      ----------               -----------
STRT.M                   0               :START DEPTH
STOP.M          2540.96533               :STOP DEPTH
STEP.M               .1524               :STEP
NULL.          -999.250000               :NULL VALUE
COMP.                                    :Oil Company
WELL.             GABO-39               :Non unique well name
FLD.             
LOC.  6.625510, 5.251997             :Location
PROV.                                    :Province
SRVC.                                    :Service
DATE.           2013-08-20               :Date unloaded
UWI.         
~Curve Information Section
#MNEM.UNIT                   API CODE                 Curve Description
#---------                   ----------               -----------------
BOREHOLE-DEPTH.M                                   :DEPTH
BS_COMP.INCHES                                   :
CALI_COMP.INCHES                                   :
DRHO_COMP.G/C3                                   :
FCNL_COMP.HZ                                   :
GR_COMP.GAPI                                   :
NCNL_COMP.HZ                                   :
NPHI_COMP.V/V                                   :
RHOB_COMP.G/C3                                   :
RSHAL_COMP.OHMM                                   :
RT_COMP.OHMM                                   :
RXO_COMP.OHMM                                   :
SP_COMP.MEGV                                   :
TENS_COMP.LBF                                   :
TVDSS_COMP.M                                   :
TVD_COMP.M                                   :
~A
# ...
2407.1580    12.2500      12.2578      0.0110       134.7942     64.1561      287.4366     0.2491       2.1334       52.4964      57.0385      52.2576      -34.7996     2916.9927    2286.6987    2304.5989    
2407.3105    12.2500      12.2523      0.0133       139.9242     67.0572      315.9166     0.2519       2.1472       47.7692      50.9536      52.7092      -34.9996     2923.9871    2286.8340    2304.7339    
2407.4629    12.2500      12.2424      0.0163       154.4733     67.8345      322.0260     0.2652       2.1624       44.7845      47.0060      53.6877      -35.0998     2932.9834    2286.9690    2304.8691    
2407.6152    12.2500      12.2478      0.0193       166.2285     65.1455      328.6285     0.2763       2.1729       43.5637      45.2043      51.7380      -35.2996     2933.0000    2287.1042    2305.0042    
2407.7676    12.2500      12.2577      0.0208       175.6078     59.9743      317.3957     0.2740       2.1773       44.6673      46.8790      53.1419      -35.0005     2919.0256    2287.2395    2305.1394    
2407.9199    12.2500      12.2755      0.0202       172.2562     56.2069      317.6557     0.2602       2.1741       46.0145      48.7411      59.8081      -34.3013     2917.0037    2287.3745    2305.2744    
2408.0725    12.2500      12.2643      0.0184       157.6830     57.1982      302.4030     0.2490       2.1667       45.3852      48.7404      63.4270      -34.0005     2928.9780    2287.5098    2305.4097    
2408.2249    12.2500      12.2366      0.0172       150.8874     64.3868      288.8842     0.2506       2.1564       42.4562      45.9126      62.4841      -34.0000     2908.0386    2287.6448    2305.5449    
2408.3772    12.2500      12.2065      0.0162       143.0924     75.3798      277.5988     0.2621       2.1469       36.9847      40.2711      56.0898      -33.5009     2924.9688    2287.7800    2305.6799    
2408.5295    12.2500      12.2161      0.0168       139.0854     84.9824      293.0341     0.2730       2.1428       29.6660      32.1564      45.8937      -32.5018     2954.9451    2287.9150    2305.8152    
2408.6821    12.2500      12.2677      0.0178       138.5011     89.0925      299.5428     0.2790       2.1518       23.3018      25.1424      32.4309      -31.5018     2940.0276    2288.0503    2305.9502    
2408.8345    12.2500      12.3272      0.0188       146.6880     88.1131      309.8249     0.2823       2.1782       19.0311      20.5339      23.2357      -30.7015     2935.0093    2288.1853    2306.0854    
2408.9868    12.2500      12.3320      0.0166       150.5476     82.9236      304.2291     0.2827       2.2210       17.5912      19.0684      21.6479      -30.8996     2935.0000    2288.3206    2306.2205    
2409.1392    12.2500      12.3221      0.0121       147.3029     76.1453      302.0826     0.2758       2.2719       18.2844      20.1408      25.1420      -31.7983     2924.0203    2288.4556    2306.3557    
2409.2917    12.2500      12.3206      0.0131       149.2153     71.3291      308.6364     0.2593       2.3216       20.0420      22.4859      38.5379      -32.1993     2921.0056    2288.5908    2306.4907    
2409.4441    12.2500      12.3443      0.0299       148.7392     70.2530      302.9948     0.2371       2.3634       21.9229      24.7680      50.2909      -32.4994     2940.9631    2288.7258    2306.6260    
2409.5964    12.2500      12.3682      0.0702       151.6275     70.9440      296.1220     0.2182       2.3954       23.4380      26.6025      46.3511      -33.9972     2933.0146    2288.8611    2306.7610    
2409.7488    12.2500      12.4440      0.1245       148.3966     69.6215      299.6887     0.2110       2.4204       24.5980      28.1116      36.6429      -34.8983     2909.0442    2288.9961    2306.8960    
2409.9011    12.2500      12.5376      0.1677       145.6456     65.7805      297.6834     0.2164       2.4370       24.9430      28.5728      31.7745      -35.4989     2931.9578    2289.1313    2307.0312    
2410.0537    12.2500      12.7136      0.1816       139.9167     62.0810      285.2884     0.2309       2.4428       24.7740      28.5089      37.5987      -36.2985     2963.9412    2289.2664    2307.1665    
2410.2061    12.2500      12.8454      0.1678       141.8168     59.7543      291.2701     0.2478       2.4347       24.4892      28.1181      50.9598      -36.0006     2946.0332    2289.4016    2307.3015    
2410.3584    12.2500      12.8628      0.1418       142.3043     57.6601      292.9072     0.2607       2.4062       23.7687      27.3534      54.9468      -35.7006     2925.0386    2289.5366    2307.4365    
2410.5107    12.2500      12.8760      0.1172       141.7257     53.7805      301.6869     0.2669       2.3547       22.8058      26.4257      43.9890      -34.9015     2915.0183    2289.6716    2307.5718    
2410.6633    12.2500      12.8795      0.0989       144.9160     48.9464      306.5457     0.2680       2.2940       21.9820      25.4720      34.1353      -34.8002     2917.9944    2289.8069    2307.7068    
2410.8157    12.2500      12.8584      0.0855       151.9636     45.2607      313.9239     0.2667       2.2412       21.5806      24.9517      34.9165      -34.8998     2895.0422    2289.9419    2307.8418    
2410.9680    12.2500      12.6315      0.0682       152.8071     42.7117      308.2605     0.2612       2.2002       21.7320      25.5320      37.4075      -34.9998     2898.9927    2290.0769    2307.9771    
2411.1204    12.2500      12.3860      0.0435       152.1263     40.2584      290.5638     0.2484       2.1701       23.0684      27.4787      36.4958      -35.5989     2909.9797    2290.2122    2308.1121    
2411.2729    12.2500      12.2918      0.0165       144.6544     37.7039      278.9901     0.2299       2.1551       25.1731      30.1953      38.9213      -35.9993     2927.9668    2290.3472    2308.2473    
2411.4253    12.2500      12.2788      -0.0021      139.0650     35.8472      274.7889     0.2148       2.1602       27.3489      33.1075      45.8466      -36.0000     2931.9927    2290.4824    2308.3823    
2411.5776    12.2500      12.2651      -0.0118      127.1002     34.3251      272.0636     0.2118       2.1742       29.5765      35.9695      49.3744      -36.1996     2937.9890    2290.6174    2308.5173    
2411.7300    12.2500      12.2782      -0.0172      130.2988     32.6106      285.0385     0.2182       2.1808       31.9051      38.8029      48.4841      -36.7989     2938.0000    2290.7524    2308.6526    
2411.8823    12.2500      12.3015      -0.0202      132.1348     31.7438      306.6476     0.2218       2.1788       32.8805      40.0792      51.6348      -37.6983     2929.0166    2290.8877    2308.7876    
2412.0349    12.2500      12.2761      -0.0169      141.3111     33.2511      310.6002     0.2172       2.1793       33.1875      40.1761      58.1053      -38.2989     2916.0239    2291.0227    2308.9226    
2412.1873    12.2500      12.2515      -0.0063      155.7545     36.7552      315.4676     0.2137       2.1845       33.1854      39.6257      57.0411      -38.3000     2925.9814    2291.1577    2309.0579    
2412.3396    12.2500      12.2256      0.0050       163.8912     40.0525      315.9250     0.2208       2.1819       32.2873      38.3736      47.9230      -38.4996     2940.9724    2291.2930    2309.1929    
2412.4919    12.2500      12.2208      0.0099       167.1776     41.4720      301.5890     0.2347       2.1645       31.5568      37.2470      44.2334      -38.0009     2930.0203    2291.4280    2309.3279    
2412.6445    12.2500      12.2282      0.0064       151.1546     40.9248      284.6562     0.2446       2.1388       32.0655      37.4153      48.3050      -37.8004     2931.9963    2291.5630    2309.4629    
2412.7969    12.2500      12.2309      0.0009       135.2325     38.9373      264.6931     0.2454       2.1207       33.4212      38.6404      50.6519      -38.3989     2943.9778    2291.6980    2309.5981    
2412.9492    12.2500      12.2391      -0.0016      120.7143     36.0171      262.8666     0.2375       2.1224       35.7325      41.2163      50.1669      -38.4998     2943.0020    2291.8333    2309.7332    
