~Version Section
VERS.   2.0:  CWLS Log ASCII Standard - Version 2.0
WRAP.    NO:  One data record per depth sample.
~Well Information Section
#MNEM.UNIT      VALUE                    DESCRIPTION
#---------      ----------               -----------
STRT.M                   0               :START DEPTH
STOP.M          2540.96533               :STOP DEPTH
STEP.M               .1524               :STEP
NULL.          -999.250000               :NULL VALUE
COMP.                                    :Oil Company
WELL.             GABO-39               :Non unique well name
FLD.             
LOC.  6.625510, 5.251997             :Location
PROV.                                    :Province
SRVC.                                    :Service
DATE.           2013-08-20               :Date unloaded
UWI.         
~Curve Information Section
#MNEM.UNIT                   API CODE                 Curve Description
#---------                   ----------               -----------------
BOREHOLE-DEPTH.M                                   :DEPTH
BS_COMP.INCHES                                   :
CALI_COMP.INCHES                                   :
DRHO_COMP.G/C3                                   :
FCNL_COMP.HZ                                   :
GR_COMP.GAPI                                   :
NCNL_COMP.HZ                                   :
NPHI_COMP.V/V                                   :
RHOB_COMP.G/C3                                   :
RSHAL_COMP.OHMM                                   :
RT_COMP.OHMM                                   :
RXO_COMP.OHMM                                   :
SP_COMP.MEGV                                   :
TENS_COMP.LBF                                   :
TVDSS_COMP.M                                   :
TVD_COMP.M                                   :
~A
# ...
1800.9108    12.2500      12.4149      0.0180       128.1002     28.0995      265.8607     0.2741       2.0966       22.4376      27.2259      14.7583      2.4002       2327.0051    1739.3169    1757.2169    
1801.0632    12.2500      12.4351      0.0176       126.4184     28.3999      294.5864     0.2645       2.1000       23.1721      28.6396      15.1059      2.3000       2341.9961    1739.4583    1757.3583    
1801.2156    12.2500      12.4697      0.0184       125.2151     26.6005      306.2507     0.2598       2.1078       23.5507      29.6476      15.1705      2.6999       2333.0022    1739.5996    1757.4996    
1801.3680    12.2500      12.4590      0.0224       137.3563     25.3003      306.3462     0.2551       2.1204       23.9863      30.5469      16.0779      2.9999       2325.0020    1739.7410    1757.6410    
1801.5204    12.2500      12.4505      0.0260       138.6833     25.9998      276.5389     0.2513       2.1274       23.9876      30.9725      16.8294      3.8998       2338.9963    1739.8824    1757.7823    
1801.6729    12.2500      12.4500      0.0235       135.1611     27.1997      254.1933     0.2522       2.1214       23.8232      31.0446      16.5587      3.7001       2332.0017    1740.0237    1757.9237    
1801.8252    12.2500      12.4500      0.0159       120.6132     27.1000      236.2547     0.2581       2.1079       23.6590      30.9027      15.8381      3.3001       2322.0027    1740.1650    1758.0651    
1801.9777    12.2500      12.4500      0.0084       110.9947     26.3002      242.6078     0.2661       2.0944       23.4426      30.6900      15.4740      2.5002       2324.9993    1740.3064    1758.2064    
1802.1300    12.2500      12.4500      0.0034       100.1590     26.1001      228.5349     0.2733       2.0834       23.2817      30.4096      15.5745      1.4003       2338.9963    1740.4478    1758.3478    
1802.2825    12.2500      12.4706      0.0034       94.5327      26.4999      235.5451     0.2762       2.0795       23.2804      30.2685      15.2931      1.0001       2338.0002    1740.5891    1758.4891    
1802.4348    12.2500      12.4863      0.0081       105.1066     26.0001      242.8653     0.2735       2.0824       23.1739      29.9920      14.6936      1.1999       2332.0015    1740.7305    1758.6305    
1802.5873    12.2500      12.4693      0.0140       104.7735     25.3002      241.4340     0.2677       2.0873       23.0673      29.7847      14.5211      1.3000       2332.0000    1740.8718    1758.7719    
1802.7396    12.2500      12.4400      0.0166       103.1004     24.9001      245.1318     0.2655       2.0882       22.9090      29.4443      14.5211      1.4000       2332.0000    1741.0131    1758.9131    
1802.8920    12.2500      12.4716      0.0170       105.3666     25.0000      249.1395     0.2720       2.0894       22.8025      29.1067      14.5211      1.2001       2330.0005    1741.1545    1759.0544    
1803.0444    12.2500      12.4890      0.0191       99.2594      25.6998      248.7579     0.2850       2.0961       22.4906      28.6420      14.6694      1.3000       2330.9998    1741.2958    1759.1958    
1803.1968    12.2500      12.5174      0.0227       105.9201     26.8997      228.9427     0.2927       2.1043       22.1823      28.1837      14.8734      1.3000       2331.9998    1741.4371    1759.3372    
1803.3492    12.2500      12.5225      0.0253       104.7737     28.2996      237.8102     0.2844       2.1062       21.9285      27.6690      14.9280      0.2003       2332.9998    1741.5785    1759.4785    
1803.5016    12.2500      12.5612      0.0253       112.2324     30.0995      250.5747     0.2696       2.0999       21.7767      27.0398      13.5141      0.2000       2339.9980    1741.7198    1759.6198    
1803.6541    12.2500      12.5448      0.0257       108.7353     32.8993      259.9741     0.2616       2.0931       21.5283      26.4248      12.0033      0.3999       2333.0020    1741.8611    1759.7611    
1803.8064    12.2500      12.5514      0.0294       99.3228      36.8989      255.6261     0.2643       2.0925       21.3805      25.9430      12.4022      0.0001       2336.9990    1742.0024    1759.9025    
1803.9589    12.2500      12.5732      0.0309       108.5757     40.4990      252.0030     0.2705       2.0950       21.4291      25.7040      13.4343      -0.1000      2332.0012    1742.1438    1760.0438    
1804.1112    12.2500      12.6070      0.0255       110.2691     41.1998      257.2252     0.2746       2.0932       21.5276      25.4697      13.5708      0.1999       2320.0032    1742.2852    1760.1851    
1804.2637    12.2500      12.6193      0.0149       113.9052     40.0003      261.6394     0.2817       2.0907       21.5789      25.5275      13.7987      0.4999       2320.0000    1742.4264    1760.3264    
1804.4160    12.2500      12.6200      0.0098       115.5995     38.5004      262.4998     0.2991       2.0955       21.9797      25.7049      14.5027      0.6000       2324.9988    1742.5677    1760.4678    
1804.5685    12.2500      12.6200      0.0138       115.9657     36.8005      252.1122     0.3108       2.1102       22.6462      26.1229      15.3904      1.3998       2330.9983    1742.7091    1760.6091    
1804.7208    12.2500      12.6200      0.0207       111.1263     34.9005      244.9355     0.2961       2.1287       23.2815      26.8544      15.8180      1.6999       2325.0017    1742.8503    1760.7504    
1804.8732    12.2500      12.5926      0.0242       97.8941      33.6003      250.5766     0.2667       2.1456       24.1010      27.8632      16.6912      1.0002       2315.0027    1742.9917    1760.8917    
1805.0256    12.2500      12.5807      0.0243       109.7156     32.8002      250.8319     0.2388       2.1652       25.4155      29.3862      17.8747      1.1000       2311.0010    1743.1331    1761.0330    
1805.1780    12.2500      12.6005      0.0240       111.2105     31.3004      253.5110     0.2128       2.1977       28.1260      33.2003      18.9558      0.5002       2308.0007    1743.2743    1761.1743    
1805.3304    12.2500      12.6163      0.0267       109.1617     28.8007      263.4193     0.1811       2.2524       32.5830      39.7169      19.8279      -0.3998      2310.9993    1743.4156    1761.3156    
1805.4828    12.2500      12.6813      0.0314       116.5292     26.3007      262.6486     0.1469       2.3183       37.1475      46.1234      24.1550      -0.6999      2325.9958    1743.5569    1761.4569    
1805.6353    12.2500      12.7084      0.0377       116.5938     24.8004      273.5596     0.1244       2.3649       40.6292      51.0286      99.2298      -0.0002      2310.0044    1743.6982    1761.5983    
1805.7876    12.2500      12.6213      0.0433       117.8669     24.4001      268.9543     0.1241       2.3655       40.9132      51.2690      138.3801     -1.2996      2317.9978    1743.8396    1761.7396    
1805.9401    12.2500      12.5825      0.0429       109.5647     25.1998      265.6009     0.1438       2.3252       38.2752      47.6322      93.6996      -1.8998      2313.0015    1743.9810    1761.8809    
1806.0924    12.2500      12.5462      0.0346       106.2009     26.6996      258.7285     0.1705       2.2700       33.8058      41.3038      38.5149      -1.9000      2331.9949    1744.1222    1762.0222    
1806.2449    12.2500      12.6525      0.0225       101.6574     27.6997      240.1612     0.1943       2.2237       28.9123      34.3634      22.2739      -0.8003      2321.0029    1744.2635    1762.1635    
1806.3972    12.2500      12.7865      0.0163       102.2732     27.7000      229.7684     0.2158       2.1986       24.9612      28.7299      19.7761      -0.8000      2317.0010    1744.4047    1762.3047    
1806.5497    12.2500      12.8338      0.0204       98.4854      26.5003      246.4017     0.2370       2.1945       24.2170      27.7420      18.0200      -0.9000      2303.0039    1744.5460    1762.4460    
1806.7020    12.2500      12.9261      0.0268       99.1443      24.5005      234.7844     0.2538       2.2029       24.9466      28.7092      17.3440      -0.0002      2314.9968    1744.6873    1762.5873    
