~Version Section
VERS.   2.0:  CWLS Log ASCII Standard - Version 2.0
WRAP.    NO:  One data record per depth sample.
~Well Information Section
#MNEM.UNIT      VALUE                    DESCRIPTION
#---------      ----------               -----------
STRT.M                   0               :START DEPTH
STOP.M          2540.96533               :STOP DEPTH
STEP.M               .1524               :STEP
NULL.          -999.250000               :NULL VALUE
COMP.                                    :Oil Company
WELL.             GABO-39               :Non unique well name
FLD.             
LOC.  6.625510, 5.251997             :Location
PROV.                                    :Province
SRVC.                                    :Service
DATE.           2013-08-20               :Date unloaded
UWI.         
~Curve Information Section
#MNEM.UNIT                   API CODE                 Curve Description
#---------                   ----------               -----------------
BOREHOLE-DEPTH.M                                   :DEPTH
BS_COMP.INCHES                                   :
CALI_COMP.INCHES                                   :
DRHO_COMP.G/C3                                   :
FCNL_COMP.HZ                                   :
GR_COMP.GAPI                                   :
NCNL_COMP.HZ                                   :
NPHI_COMP.V/V                                   :
RHOB_COMP.G/C3                                   :
RSHAL_COMP.OHMM                                   :
RT_COMP.OHMM                                   :
RXO_COMP.OHMM                                   :
SP_COMP.MEGV                                   :
TENS_COMP.LBF                                   :
TVDSS_COMP.M                                   :
TVD_COMP.M                                   :
~A
# ...
1901.9520    12.2500      13.3853      0.0334       71.8815      59.5008      193.1295     0.3177       2.1413       12.3890      16.4071      9.9557       1.5001       2418.0010    1832.6270    1850.5269    
1902.1044    12.2500      13.3819      0.0328       70.4538      58.5005      182.6382     0.3283       2.1320       12.5888      16.6717      10.2079      0.9003       2404.0073    1832.7670    1850.6670    
1902.2568    12.2500      13.3556      0.0331       69.1472      63.4974      183.5503     0.3276       2.1320       12.7035      16.7849      11.6184      0.7001       2412.9954    1832.9071    1850.8071    
1902.4092    12.2500      13.4596      0.0370       76.1838      72.3954      184.2996     0.3212       2.1503       12.3325      16.2199      11.8490      0.7000       2411.0010    1833.0472    1850.9471    
1902.5616    12.2500      13.6518      0.0428       75.6331      78.9966      199.2578     0.3193       2.1786       12.2475      15.9975      11.1985      0.7000       2412.9990    1833.1873    1851.0873    
1902.7140    12.2500      13.7927      0.0454       67.5120      81.4987      178.1985     0.3238       2.1955       12.4466      16.1831      10.6629      0.8999       2428.9917    1833.3274    1851.2274    
1902.8665    12.2500      13.7190      0.0417       73.0830      81.0003      171.8033     0.3330       2.1875       13.0022      16.9051      11.0594      0.6002       2413.0083    1833.4675    1851.3676    
1903.0188    12.2500      13.5494      0.0337       61.4592      78.4014      186.5392     0.3470       2.1638       13.7401      17.8644      12.0630      0.6999       2412.0005    1833.6075    1851.5076    
1903.1713    12.2500      13.4844      0.0243       61.5858      73.3027      178.1138     0.3639       2.1420       14.4869      18.8360      12.5920      1.5995       2419.9958    1833.7477    1851.6477    
1903.3236    12.2500      13.4576      0.0140       62.4995      66.3037      175.0016     0.3647       2.1299       15.1340      19.8127      12.5491      1.9998       2404.0083    1833.8878    1851.7878    
1903.4761    12.2500      13.6923      0.0127       66.6423      59.6035      174.2836     0.3263       2.1333       15.4873      20.3223      12.6304      2.1999       2386.0095    1834.0280    1851.9279    
1903.6284    12.2500      13.9800      0.0185       66.0257      56.1018      182.2146     0.2952       2.1533       15.6663      20.6049      12.9152      2.3999       2393.9958    1834.1678    1852.0679    
1903.7809    12.2500      14.1115      0.0224       69.8183      57.9990      183.9005     0.2977       2.1915       15.5963      20.6071      14.4152      2.0002       2426.9827    1834.3080    1852.2080    
1903.9332    12.2500      14.1621      0.0206       71.6163      63.7970      186.7485     0.3091       2.2225       15.7037      20.7971      15.8206      2.0000       2405.0115    1834.4481    1852.3481    
1904.0856    12.2500      13.9089      0.0193       69.3293      66.2987      187.4996     0.3088       2.2132       15.8496      21.0396      14.9517      2.0999       2408.9978    1834.5883    1852.4882    
1904.2380    12.2500      13.7420      0.0196       76.1917      60.8029      194.9023     0.3046       2.1864       16.1820      21.7283      14.3509      1.4004       2410.9990    1834.7283    1852.6283    
1904.3904    12.2500      13.4967      0.0203       75.6292      50.0057      179.4456     0.3001       2.1561       16.8265      22.8031      15.8430      1.2001       2422.9937    1834.8683    1852.7683    
1904.5428    12.2500      13.3794      0.0207       79.9430      39.9053      182.4046     0.2967       2.1274       17.4983      23.9315      17.2668      1.5998       2444.9885    1835.0084    1852.9084    
1904.6952    12.2500      13.4049      0.0215       71.2390      34.5028      179.3610     0.2943       2.1100       18.1958      24.8307      16.3345      2.4995       2442.0015    1835.1486    1853.0485    
1904.8477    12.2500      13.5258      0.0230       68.7013      34.5000      190.5253     0.2923       2.1020       18.7052      25.7009      15.0319      2.7998       2440.0010    1835.2886    1853.1886    
1905.0000    12.2500      13.5610      0.0260       73.0055      38.1981      196.0869     0.2908       2.1078       18.9214      25.9978      14.8736      3.3997       2430.0054    1835.4286    1853.3286    
1905.1525    12.2500      13.4835      0.0292       79.7542      44.1968      229.2013     0.2891       2.1179       18.7064      25.4684      15.8198      1.9008       2449.9895    1835.5687    1853.4688    
1905.3048    12.2500      13.6124      0.0314       86.2154      52.0958      234.9462     0.2876       2.1285       18.3647      24.8882      17.1985      0.5007       2450.9995    1835.7087    1853.6088    
1905.4573    12.2500      13.6599      0.0310       89.9707      61.1952      236.8506     0.2866       2.1367       17.8243      24.1544      17.1411      -0.2996      2449.0010    1835.8488    1853.7488    
1905.6096    12.2500      13.4768      0.0243       98.0895      68.4961      247.4632     0.2906       2.1377       17.3387      23.2817      15.6531      -0.5998      2433.0085    1835.9889    1853.8889    
1905.7620    12.2500      13.3365      0.0162       102.5484     70.9987      243.5490     0.3044       2.1335       16.9440      22.4924      14.6939      -1.5995      2439.9963    1836.1289    1854.0289    
1905.9144    12.2500      13.1526      0.0095       98.1040      71.8995      238.3933     0.3225       2.1266       16.6351      22.0307      14.3508      -2.0997      2422.0095    1836.2690    1854.1689    
1906.0668    12.2500      13.0676      0.0057       104.2858     74.3987      237.5005     0.3330       2.1199       16.5202      21.8279      14.1449      -2.2999      2412.0054    1836.4091    1854.3090    
1906.2192    12.2500      13.0795      0.0067       96.2387      78.8976      247.4635     0.3317       2.1174       16.5198      21.7277      13.9510      -1.9002      2442.9836    1836.5491    1854.4491    
1906.3716    12.2500      13.2062      0.0127       101.2707     83.7974      279.4830     0.3280       2.1200       16.5577      21.7769      13.6213      -1.5002      2440.0017    1836.6892    1854.5892    
1906.5240    12.2500      13.4025      0.0199       113.0562     85.8989      250.0157     0.3304       2.1225       16.5967      21.7775      13.3846      -0.7004      2451.9937    1836.8292    1854.7292    
1906.6764    12.2500      13.5344      0.0226       108.1120     84.6007      265.4606     0.3342       2.1184       16.8268      21.8784      13.3352      0.1995       2427.0132    1836.9692    1854.8691    
1906.8289    12.2500      13.6591      0.0200       103.8109     82.2013      255.7083     0.3326       2.1085       17.1916      22.3132      13.3352      0.7997       2418.0049    1837.1093    1855.0093    
1906.9812    12.2500      13.8112      0.0169       105.5889     81.0006      247.7815     0.3256       2.0999       17.7531      23.1951      13.4713      0.9999       2434.9910    1837.2493    1855.1493    
1907.1337    12.2500      13.8539      0.0187       108.9084     78.7012      265.9903     0.3164       2.0997       17.0513      22.3319      13.6586      1.2998       2435.0000    1837.3894    1855.2894    
1907.2860    12.2500      13.8009      0.0244       111.9086     75.3018      254.2563     0.3113       2.1093       14.7538      19.3313      14.3054      2.2995       2418.0090    1837.5294    1855.4294    
1907.4385    12.2500      13.7071      0.0286       97.5233      74.5004      254.9371     0.3145       2.1275       11.5953      14.9911      15.3363      3.0996       2406.0063    1837.6694    1855.5695    
1907.5908    12.2500      13.6707      0.0304       103.6686     77.8982      243.7716     0.3246       2.1564       9.1110       11.4413      16.3959      3.8996       2406.0000    1837.8094    1855.7095    
1907.7432    12.2500      13.7057      0.0322       101.2591     82.1977      243.0707     0.3322       2.1985       8.6399       10.8614      14.1106      5.0994       2419.9924    1837.9495    1855.8495    
