~Version Section
VERS.   2.0:  CWLS Log ASCII Standard - Version 2.0
WRAP.    NO:  One data record per depth sample.
~Well Information Section
#MNEM.UNIT      VALUE                    DESCRIPTION
#---------      ----------               -----------
STRT.M                   0               :START DEPTH
STOP.M          2540.96533               :STOP DEPTH
STEP.M               .1524               :STEP
NULL.          -999.250000               :NULL VALUE
COMP.                                    :Oil Company
WELL.             GABO-39               :Non unique well name
FLD.             
LOC.  6.625510, 5.251997             :Location
PROV.                                    :Province
SRVC.                                    :Service
DATE.           2013-08-20               :Date unloaded
UWI.         
~Curve Information Section
#MNEM.UNIT                   API CODE                 Curve Description
#---------                   ----------               -----------------
BOREHOLE-DEPTH.M                                   :DEPTH
BS_COMP.INCHES                                   :
CALI_COMP.INCHES                                   :
DRHO_COMP.G/C3                                   :
FCNL_COMP.HZ                                   :
GR_COMP.GAPI                                   :
NCNL_COMP.HZ                                   :
NPHI_COMP.V/V                                   :
RHOB_COMP.G/C3                                   :
RSHAL_COMP.OHMM                                   :
RT_COMP.OHMM                                   :
RXO_COMP.OHMM                                   :
SP_COMP.MEGV                                   :
TENS_COMP.LBF                                   :
TVDSS_COMP.M                                   :
TVD_COMP.M                                   :
~A
# ...
2252.6245    12.2500      12.3591      0.0028       83.7585      17.0026      195.5517     0.2163       2.1422       7.6376       8.3741       24.4790      -29.6999     2736.9944    2149.7368    2167.6370    
2252.7769    12.2500      12.3694      -0.0014      76.2763      17.0000      174.0308     0.2163       2.1426       7.9240       8.6883       27.7883      -29.9996     2745.9871    2149.8716    2167.7715    
2252.9292    12.2500      12.3736      -0.0036      64.0487      18.8973      169.5874     0.2140       2.1448       8.0710       8.8092       28.5748      -29.9001     2740.0085    2150.0061    2167.9060    
2253.0815    12.2500      12.3802      -0.0026      57.3845      21.1967      165.1158     0.2108       2.1485       7.9800       8.6699       28.5759      -29.8001     2736.0056    2150.1406    2168.0405    
2253.2341    12.2500      12.3882      0.0006       61.8374      22.4981      168.4796     0.2094       2.1525       7.8892       8.5516       27.4489      -29.5004     2733.0044    2150.2751    2168.1753    
2253.3865    12.2500      12.3854      0.0045       59.1913      22.0007      176.5119     0.2110       2.1574       7.9069       8.5900       26.0177      -30.3987     2733.0000    2150.4099    2168.3098    
2253.5388    12.2500      12.3763      0.0085       61.3563      21.0014      175.0451     0.2138       2.1646       7.9614       8.6297       26.1727      -30.4000     2734.9971    2150.5442    2168.4443    
2253.6912    12.2500      12.3663      0.0111       58.0828      21.2996      176.6735     0.2173       2.1729       7.9796       8.6494       25.8355      -30.7994     2737.9956    2150.6790    2168.5789    
2253.8435    12.2500      12.3746      0.0119       59.4746      22.5981      174.0468     0.2241       2.1764       7.9251       8.6098       26.1714      -30.4006     2732.0085    2150.8135    2168.7134    
2253.9961    12.2500      12.3963      0.0106       58.4838      23.4987      168.0320     0.2340       2.1703       7.8704       8.5309       26.3630      -30.5997     2733.9971    2150.9480    2168.8481    
2254.1484    12.2500      12.4127      0.0070       62.5176      23.3003      171.9085     0.2406       2.1556       7.7808       8.4144       24.9473      -30.8996     2753.9714    2151.0825    2168.9827    
2254.3008    12.2500      12.4281      0.0022       60.4444      23.2001      184.9501     0.2380       2.1409       7.7448       8.3757       21.8014      -30.9000     2763.9856    2151.2173    2169.1172    
2254.4531    12.2500      12.4381      0.0004       64.1821      24.1986      186.4802     0.2297       2.1350       7.7451       8.4141       19.4057      -31.0997     2745.0273    2151.3518    2169.2517    
2254.6057    12.2500      12.4355      0.0048       67.2145      25.6978      180.0717     0.2262       2.1402       7.8521       8.5114       20.3229      -30.9003     2732.0186    2151.4863    2169.3865    
2254.7581    12.2500      12.4354      0.0136       61.8515      27.1978      169.1875     0.2343       2.1480       7.9243       8.6489       23.4760      -30.6004     2730.0029    2151.6211    2169.5210    
2254.9104    12.2500      12.4479      0.0208       55.5247      28.2984      172.6902     0.2493       2.1471       7.8700       8.6488       24.8505      -30.5001     2723.0100    2151.7556    2169.6555    
2255.0627    12.2500      12.4625      0.0236       52.9529      30.1973      164.1062     0.2622       2.1355       7.6735       8.4525       25.0033      -30.5000     2728.9915    2151.8901    2169.7900    
2255.2153    12.2500      12.4910      0.0244       49.2475      33.8947      162.0615     0.2695       2.1205       7.3794       8.1288       24.5865      -30.2004     2734.9915    2152.0247    2169.9248    
2255.3677    12.2500      12.5152      0.0253       55.8655      38.5932      174.0921     0.2734       2.1089       7.0800       7.8169       22.8189      -30.2000     2726.0129    2152.1592    2170.0593    
2255.5200    12.2500      12.5200      0.0259       60.4934      42.9937      184.8751     0.2734       2.1007       6.7931       7.5342       21.2171      -29.5010     2727.9971    2152.2939    2170.1938    
2255.6724    12.2500      12.5287      0.0256       64.8609      45.0970      192.1458     0.2700       2.0932       6.6539       7.2964       20.5318      -29.4001     2720.0115    2152.4285    2170.3286    
2255.8247    12.2500      12.5552      0.0251       74.1585      45.8988      206.0112     0.2693       2.0875       6.7306       7.3970       19.8438      -29.4999     2715.0071    2152.5630    2170.4629    
2255.9773    12.2500      12.5675      0.0237       86.4823      46.2994      221.9770     0.2769       2.0874       7.0143       7.7441       20.2085      -29.4001     2719.9929    2152.6975    2170.5977    
2256.1296    12.2500      12.5833      0.0214       88.3586      45.9006      221.5163     0.2867       2.0959       7.3270       8.0900       21.0506      -29.1004     2734.9785    2152.8323    2170.7322    
2256.2820    12.2500      12.6177      0.0193       89.0361      44.9014      226.8751     0.2867       2.1111       7.4815       8.3170       21.2811      -28.8004     2745.9841    2152.9668    2170.8667    
2256.4343    12.2500      12.6455      0.0182       88.4423      44.2010      217.8568     0.2768       2.1288       7.6370       8.4902       22.3578      -28.5004     2747.9971    2153.1013    2171.0015    
2256.5869    12.2500      12.6538      0.0193       89.8398      46.0973      226.7372     0.2660       2.1501       7.5332       8.3556       22.3706      -28.2004     2750.9956    2153.2361    2171.1360    
2256.7393    12.2500      12.6803      0.0232       90.2993      52.0914      225.8840     0.2618       2.1824       7.3115       8.0912       21.2165      -27.5010     2749.0029    2153.3706    2171.2705    
2256.8916    12.2500      12.7336      0.0301       95.2975      61.0870      249.0603     0.2660       2.2280       7.0479       7.7814       20.5322      -26.1020     2746.0044    2153.5051    2171.4053    
2257.0439    12.2500      12.8270      0.0384       98.4135      70.1869      248.7973     0.2754       2.2729       6.9184       7.5863       16.0923      -24.0030     2725.0303    2153.6399    2171.5398    
2257.1965    12.2500      12.8754      0.0448       106.4572     75.8918      258.0336     0.2845       2.2944       6.7621       7.4484       11.4481      -21.8032     2742.9741    2153.7744    2171.6743    
2257.3489    12.2500      12.8573      0.0468       109.2986     76.8986      241.6175     0.2891       2.2847       6.8550       7.5163       10.7412      -20.3022     2785.9380    2153.9089    2171.8091    
2257.5012    12.2500      12.8254      0.0417       110.4359     74.0042      250.7056     0.2909       2.2567       6.9984       7.6207       13.3829      -19.5012     2826.9409    2154.0437    2171.9436    
2257.6536    12.2500      12.9225      0.0304       112.4170     68.7076      257.2913     0.2970       2.2315       7.1777       7.7444       14.6061      -19.1006     2800.0391    2154.1782    2172.0781    
2257.8059    12.2500      12.9053      0.0184       109.4691     64.0068      267.5164     0.3080       2.2235       7.3625       7.8531       13.7044      -17.8019     2769.0447    2154.3127    2172.2129    
2257.9585    12.2500      12.7264      0.0138       112.7062     62.0029      266.5326     0.3133       2.2342       7.6898       8.1456       14.8635      -15.8029     2733.0520    2154.4475    2172.3474    
2258.1108    12.2500      12.6924      0.0238       119.8256     62.6358      259.6505     0.3055       2.2573       7.7796       8.2215       17.4494      -13.5033     2769.9465    2154.5820    2172.4819    
2258.2632    12.2500      12.7066      0.0475       120.6404     65.8392      269.7822     0.2957       2.2871       7.7082       8.1278       15.9748      -10.0051     2774.9927    2154.7166    2172.6167    
2258.4155    12.2500      12.7142      0.0719       126.2497     72.0926      271.3766     0.3035       2.3187       7.4296       7.8876       13.3436      -6.3053      2745.0435    2154.8513    2172.7512    
