~Version Section
VERS.   2.0:  CWLS Log ASCII Standard - Version 2.0
WRAP.    NO:  One data record per depth sample.
~Well Information Section
#MNEM.UNIT      VALUE                    DESCRIPTION
#---------      ----------               -----------
STRT.M                   0               :START DEPTH
STOP.M          2540.96533               :STOP DEPTH
STEP.M               .1524               :STEP
NULL.          -999.250000               :NULL VALUE
COMP.                                    :Oil Company
WELL.             GABO-39               :Non unique well name
FLD.             
LOC.  6.625510, 5.251997             :Location
PROV.                                    :Province
SRVC.                                    :Service
DATE.           2013-08-20               :Date unloaded
UWI.         
~Curve Information Section
#MNEM.UNIT                   API CODE                 Curve Description
#---------                   ----------               -----------------
BOREHOLE-DEPTH.M                                   :DEPTH
BS_COMP.INCHES                                   :
CALI_COMP.INCHES                                   :
DRHO_COMP.G/C3                                   :
FCNL_COMP.HZ                                   :
GR_COMP.GAPI                                   :
NCNL_COMP.HZ                                   :
NPHI_COMP.V/V                                   :
RHOB_COMP.G/C3                                   :
RSHAL_COMP.OHMM                                   :
RT_COMP.OHMM                                   :
RXO_COMP.OHMM                                   :
SP_COMP.MEGV                                   :
TENS_COMP.LBF                                   :
TVDSS_COMP.M                                   :
TVD_COMP.M                                   :
~A
# ...
2454.7068    12.2500      12.1463      -0.0016      128.7462     14.3014      296.6225     0.2255       2.1178       5.5984       5.0014       30.2044      -29.4957     2896.9980    2328.7573    2346.6572    
2454.8591    12.2500      12.0718      0.0018       137.5140     15.3978      286.6135     0.2161       2.1364       5.1542       4.6360       28.2382      -34.7896     2898.9961    2328.8918    2346.7917    
2455.0117    12.2500      12.0812      0.0057       133.6171     18.0947      277.0733     0.2133       2.1494       4.9326       4.4370       25.3338      -37.4947     2910.9766    2329.0261    2346.9263    
2455.1641    12.2500      12.1312      0.0097       127.3248     22.5912      266.6610     0.2180       2.1605       4.8207       4.3560       22.1274      -38.1986     2921.9785    2329.1606    2347.0605    
2455.3164    12.2500      12.1769      0.0151       120.6771     28.6881      257.4555     0.2303       2.1694       4.9318       4.4465       20.0763      -36.5033     2924.9941    2329.2952    2347.1951    
2455.4688    12.2500      12.2032      0.0197       118.8498     34.2890      258.7084     0.2445       2.1711       5.1168       4.6132       19.0830      -29.6135     2936.9766    2329.4294    2347.3296    
2455.6213    12.2500      12.1751      0.0203       120.2882     36.7951      259.4868     0.2521       2.1613       5.3829       4.8641       19.4329      -22.7135     2949.9746    2329.5640    2347.4639    
2455.7737    12.2500      12.1329      0.0158       120.2150     35.1033      271.2581     0.2524       2.1440       5.8197       5.2351       21.5350      -23.1990     2950.0000    2329.6985    2347.5984    
2455.9260    12.2500      12.0859      0.0092       122.1174     31.5070      269.0356     0.2502       2.1280       6.1647       5.5705       24.7281      -23.5992     2954.9902    2329.8328    2347.7329    
2456.0784    12.2500      12.0707      0.0071       119.3960     28.9051      271.0585     0.2479       2.1219       6.3811       5.7270       28.4225      -24.5980     2944.0215    2329.9673    2347.8672    
2456.2307    12.2500      12.0839      0.0105       130.2911     28.1016      283.4912     0.2458       2.1259       6.3530       5.7142       32.2971      -25.8975     2928.0312    2330.1016    2348.0017    
2456.3833    12.2500      12.0967      0.0154       132.3826     28.4992      290.6266     0.2440       2.1335       6.2511       5.5587       33.3406      -26.4988     2940.9746    2330.2361    2348.1360    
2456.5356    12.2500      12.0860      0.0176       142.0280     29.5978      283.9038     0.2426       2.1394       5.9711       5.2732       29.2814      -26.6996     2947.9863    2330.3706    2348.2705    
2456.6880    12.2500      12.0803      0.0173       134.7019     31.0971      270.4794     0.2398       2.1430       5.7423       5.0594       26.2248      -26.7000     2956.9824    2330.5049    2348.4048    
2456.8403    12.2500      12.0661      0.0149       129.4380     32.9963      270.4063     0.2356       2.1447       5.6504       5.0241       26.6203      -26.8996     2942.0293    2330.6394    2348.5393    
2456.9929    12.2500      12.0811      0.0120       125.7104     36.0939      273.7707     0.2339       2.1429       5.7410       5.1284       29.1864      -27.2992     2938.0078    2330.7737    2348.6736    
2457.1453    12.2500      12.1035      0.0103       128.7362     39.6929      281.7499     0.2372       2.1372       5.8210       5.2358       30.7099      -27.0006     2939.9961    2330.9082    2348.8081    
2457.2976    12.2500      12.1097      0.0107       129.2744     41.4965      274.5922     0.2427       2.1323       5.9291       5.3451       31.7168      -0.0530      2949.9805    2331.0425    2348.9424    
2457.4500    12.2500      12.1030      0.0131       130.4352     40.5020      272.9095     0.2463       2.1331       6.0391       5.3829       31.9884      0.0000       2951.9961    2331.1770    2349.0769    
2457.6025    12.2500      12.1001      0.0147       129.0262     38.5039      273.8912     0.2493       2.1361       6.1096       5.4825       30.5263      0.0000       2945.0137    2331.3113    2349.2112    
2457.7549    12.2500      12.0791      0.0136       129.2516     37.1027      275.0972     0.2523       2.1370       6.2516       5.5591       28.5273      0.0000       2945.0000    2331.4458    2349.3457    
2457.9072    12.2500      12.0634      0.0123       137.7801     36.2018      279.5225     0.2522       2.1363       6.4268       5.7014       30.1726      0.0000       2934.0215    2331.5801    2349.4800    
2458.0596    12.2500      12.0671      0.0134       134.3038     36.5992      298.4004     0.2467       2.1388       6.6674       5.8610       33.9145      0.0000       2945.9763    2331.7146    2349.6145    
2458.2119    12.2500      12.0768      0.0154       136.9479     38.2967      296.8936     0.2393       2.1441       6.8540       6.0106       35.7094      0.0000       2936.0195    2331.8489    2349.7488    
2458.3645    12.2500      12.0868      0.0160       139.8186     39.3978      283.1832     0.2338       2.1487       6.9180       5.9842       35.9744      0.0000       2958.9548    2331.9834    2349.8833    
2458.5168    12.2500      12.0899      0.0160       133.0446     37.7033      273.5814     0.2310       2.1493       6.9340       5.9564       34.5029      0.0000       2947.0237    2332.1177    2350.0176    
2458.6692    12.2500      12.0900      0.0167       129.2360     34.4065      257.7499     0.2297       2.1476       6.8863       5.8616       31.7788      0.0000       2948.9961    2332.2520    2350.1521    
2458.8215    12.2500      12.0692      0.0156       121.5620     32.1045      235.3878     0.2304       2.1442       6.7768       5.7680       28.7950      0.0000       2953.9902    2332.3865    2350.2864    
2458.9741    12.2500      12.0604      0.0116       111.0052     30.7028      230.4003     0.2320       2.1410       6.6990       5.7018       29.4538      0.0000       2957.9922    2332.5208    2350.4209    
2459.1265    12.2500      12.0669      0.0059       101.0196     29.6022      232.8740     0.2312       2.1387       6.6371       5.6621       33.6479      0.0000       2955.0059    2332.6553    2350.5552    
2459.2788    12.2500      12.0837      0.0027       96.8714      29.5002      237.3350     0.2259       2.1401       6.4865       5.5464       37.9174      0.0000       2936.0374    2332.7896    2350.6895    
2459.4312    12.2500      12.0967      0.0041       98.2005      31.0969      229.4843     0.2208       2.1465       6.3245       5.4076       36.7835      0.0000       2946.9783    2332.9238    2350.8240    
2459.5837    12.2500      12.1068      0.0084       96.8543      33.3955      227.4961     0.2230       2.1538       6.1804       5.2363       33.2803      0.0000       2951.9902    2333.0583    2350.9583    
2459.7361    12.2500      12.1029      0.0127       95.0777      35.0967      221.0596     0.2340       2.1552       6.0263       5.0589       29.0084      0.0000       2947.0098    2333.1926    2351.0925    
2459.8884    12.2500      12.0793      -999.2500    90.4544      35.6988      216.8949     -999.2500    -999.2500    -999.2500    -999.2500    26.7524      0.0000       2914.0649    2333.3269    2351.2271    
2460.0408    12.2500      -999.2500    -999.2500    -999.2500    -999.2500    -999.2500    -999.2500    -999.2500    -999.2500    -999.2500    -999.2500    -999.2500    -999.2500    2333.4614    2351.3613    
2460.1931    12.2500      -999.2500    -999.2500    -999.2500    -999.2500    -999.2500    -999.2500    -999.2500    -999.2500    -999.2500    -999.2500    -999.2500    -999.2500    2333.5957    2351.4956    
2460.3457    12.2500      -999.2500    -999.2500    -999.2500    -999.2500    -999.2500    -999.2500    -999.2500    -999.2500    -999.2500    -999.2500    -999.2500    -999.2500    2333.7300    2351.6301    
2460.4980    12.2500      -999.2500    -999.2500    -999.2500    -999.2500    -999.2500    -999.2500    -999.2500    -999.2500    -999.2500    -999.2500    -999.2500    -999.2500    2333.8645    2351.7644    
