~Version Section
VERS.   2.0:  CWLS Log ASCII Standard - Version 2.0
WRAP.    NO:  One data record per depth sample.
~Well Information Section
#MNEM.UNIT      VALUE                    DESCRIPTION
#---------      ----------               -----------
STRT.M                   0               :START DEPTH
STOP.M          2540.96533               :STOP DEPTH
STEP.M               .1524               :STEP
NULL.          -999.250000               :NULL VALUE
COMP.                                    :Oil Company
WELL.             GABO-39               :Non unique well name
FLD.             
LOC.  6.625510, 5.251997             :Location
PROV.                                    :Province
SRVC.                                    :Service
DATE.           2013-08-20               :Date unloaded
UWI.         
~Curve Information Section
#MNEM.UNIT                   API CODE                 Curve Description
#---------                   ----------               -----------------
BOREHOLE-DEPTH.M                                   :DEPTH
BS_COMP.INCHES                                   :
CALI_COMP.INCHES                                   :
DRHO_COMP.G/C3                                   :
FCNL_COMP.HZ                                   :
GR_COMP.GAPI                                   :
NCNL_COMP.HZ                                   :
NPHI_COMP.V/V                                   :
RHOB_COMP.G/C3                                   :
RSHAL_COMP.OHMM                                   :
RT_COMP.OHMM                                   :
RXO_COMP.OHMM                                   :
SP_COMP.MEGV                                   :
TENS_COMP.LBF                                   :
TVDSS_COMP.M                                   :
TVD_COMP.M                                   :
~A
# ...
2353.6655    12.2500      12.8124      0.0320       56.9180      94.6648      169.7939     0.3049       2.1923       14.1949      17.8278      21.8016      -22.2003     2836.9849    2239.1887    2257.0889    
2353.8181    12.2500      12.8446      0.0369       59.0901      94.0948      168.8142     0.3195       2.2194       12.9156      16.2977      21.5298      -22.2000     2831.0103    2239.3242    2257.2241    
2353.9705    12.2500      12.8968      0.0443       57.9902      91.7384      170.8715     0.3225       2.2425       11.9153      15.2432      24.1440      -21.6010     2833.9949    2239.4595    2257.3594    
2354.1228    12.2500      12.9867      0.0470       55.3092      89.3107      164.8383     0.3196       2.2530       11.1962      14.3906      21.0677      -21.0010     2834.9983    2239.5947    2257.4946    
2354.2751    12.2500      13.1265      0.0422       59.4929      88.0266      173.3855     0.3188       2.2562       10.6191      13.8062      16.8899      -20.7005     2825.0168    2239.7300    2257.6299    
2354.4277    12.2500      13.2439      0.0330       60.9955      89.1661      172.6020     0.3190       2.2588       10.3040      13.5521      16.8945      -20.6002     2811.0237    2239.8652    2257.7651    
2354.5801    12.2500      13.3395      0.0242       63.7844      91.4492      170.2111     0.3196       2.2612       9.8868       13.2438      18.7020      -19.9012     2833.9609    2240.0005    2257.9004    
2354.7324    12.2500      13.3798      0.0151       53.1742      92.6979      165.9292     0.3222       2.2644       9.5942       12.9125      17.5839      -19.1014     2831.0051    2240.1357    2258.0359    
2354.8848    12.2500      13.3977      0.0075       57.3678      92.7399      165.9000     0.3259       2.2773       9.2264       12.5322      15.3280      -17.5027     2822.0154    2240.2710    2258.1709    
2355.0371    12.2500      13.4099      0.0050       59.4769      93.1360      165.9000     0.3249       2.3067       8.8715       12.1886      14.5763      -17.0008     2841.9661    2240.4062    2258.3064    
2355.1897    12.2500      13.4276      0.0085       51.1080      94.3924      170.1490     0.3162       2.3504       8.3572       11.4307      14.6692      -15.3029     2843.9966    2240.5415    2258.4417    
2355.3420    12.2500      13.5039      0.0180       56.8106      96.2663      170.8904     0.3071       2.3986       7.9076       10.8160      15.5747      -12.3051     2867.9592    2240.6770    2258.5769    
2355.4944    12.2500      13.6188      0.0316       62.6074      98.4436      174.3418     0.3015       2.4424       7.4653       10.3522      16.6895      -8.3068      2868.9983    2240.8123    2258.7122    
2355.6467    12.2500      13.6923      0.0465       71.0482      99.6137      219.3609     0.2997       2.4746       7.0318       9.8865       14.1995      -3.1088      2866.0051    2240.9475    2258.8474    
2355.7993    12.2500      13.6810      0.0551       87.8465      98.8704      254.5652     0.3035       2.4863       6.6839       9.4635       11.1614      1.3924       2860.0103    2241.0828    2258.9827    
2355.9517    12.2500      13.6434      0.0518       118.4168     97.5401      284.4181     0.3185       2.4709       6.3244       9.1199       9.9805       4.0954       2868.9846    2241.2180    2259.1179    
2356.1040    12.2500      13.4320      0.0407       151.2879     97.9212      306.8681     0.3452       2.4378       5.9026       8.6103       8.2724       6.1964       2859.0171    2241.3533    2259.2534    
2356.2563    12.2500      13.2496      0.0312       173.5247     99.3394      314.8069     0.3706       2.4057       5.4584       7.9997       6.2768       8.2964       2863.9915    2241.4885    2259.3887    
2356.4089    12.2500      13.3051      0.0281       188.8645     99.5699      328.3208     0.3831       2.3895       5.0242       7.4653       5.1357       10.6959      2859.0085    2241.6238    2259.5239    
2356.5613    12.2500      13.2903      0.0302       208.9034     97.6478      321.4259     0.3892       2.3861       4.6139       6.9037       4.8764       12.0976      2845.0237    2241.7593    2259.6592    
2356.7136    12.2500      13.2486      0.0347       200.2959     94.4624      286.3098     0.4007       2.3816       4.2084       6.4132       5.3263       13.7971      2838.0120    2241.8945    2259.7944    
2356.8660    12.2500      13.2816      0.0386       168.7725     92.0997      266.1592     0.4216       2.3687       3.9003       5.9851       5.3673       14.4988      2839.9966    2242.0298    2259.9297    
2357.0183    12.2500      13.1949      0.0411       151.5917     91.9611      258.8405     0.4407       2.3525       3.6822       5.6123       4.6136       14.7995      2835.0085    2242.1650    2260.0652    
2357.1709    12.2500      12.9927      0.0436       124.5772     93.0762      248.6735     0.4427       2.3442       3.5900       5.4964       3.9435       15.3990      2834.0017    2242.3003    2260.2004    
2357.3232    12.2500      12.8607      0.0466       114.1739     93.6989      252.9146     0.4223       2.3534       3.6481       5.5604       3.5608       16.2985      2820.0239    2242.4358    2260.3357    
2357.4756    12.2500      12.8311      0.0490       110.6349     93.6534      249.5488     0.3876       2.3762       3.8633       5.9562       3.5895       16.0005      2830.9812    2242.5708    2260.4709    
2357.6279    12.2500      12.8731      0.0510       111.6487     94.4674      241.7399     0.3567       2.3960       4.0634       6.4098       4.4946       16.2995      2849.9675    2242.7063    2260.6062    
2357.7805    12.2500      12.9727      0.0504       109.5973     96.3445      234.3329     0.3446       2.3962       4.1106       6.5296       5.5022       16.2002      2832.0308    2242.8416    2260.7415    
2357.9329    12.2500      13.1126      0.0448       100.4375     97.0418      232.6649     0.3554       2.3763       3.9626       6.3089       4.9804       16.7990      2838.9880    2242.9768    2260.8767    
2358.0852    12.2500      13.0124      0.0375       100.9522     95.1634      235.9319     0.3836       2.3504       3.7069       5.8346       4.0348       17.3990      2846.9863    2243.1121    2261.0122    
2358.2375    12.2500      12.8462      0.0336       107.0754     91.3659      237.1424     0.4157       2.3323       3.3814       5.2256       3.4015       18.0988      2823.0410    2243.2476    2261.1475    
2358.3901    12.2500      12.8680      0.0362       111.5627     87.5573      235.4950     0.4395       2.3269       3.1059       4.7447       3.1510       18.0002      2839.9709    2243.3828    2261.2827    
2358.5425    12.2500      12.9391      0.0420       122.7778     85.4119      266.2287     0.4519       2.3311       3.0137       4.5930       3.2360       18.0000      2850.9812    2243.5181    2261.4182    
2358.6948    12.2500      12.9840      0.0464       126.6107     85.1967      272.8169     0.4564       2.3416       3.0549       4.6137       3.3200       18.0000      2857.9880    2243.6533    2261.5535    
2358.8472    12.2500      12.9838      0.0495       135.5472     86.0669      252.2851     0.4577       2.3554       3.1048       4.7640       3.2788       18.4991      2849.0154    2243.7888    2261.6887    
2358.9995    12.2500      12.9605      0.0540       130.0874     87.1222      238.9758     0.4569       2.3671       3.2133       4.8972       3.4117       18.2005      2827.0376    2243.9241    2261.8240    
2359.1521    12.2500      12.9505      0.0599       114.7606     88.2013      222.2161     0.4528       2.3701       3.2657       4.9426       3.6933       17.9005      2836.9829    2244.0593    2261.9592    
2359.3044    12.2500      12.9601      0.0623       111.9286     89.0571      229.5343     0.4451       2.3605       3.2884       4.8976       3.7756       17.4009      2844.9863    2244.1946    2262.0945    
2359.4568    12.2500      12.9694      0.0585       99.7552      89.0317      223.8301     0.4389       2.3414       3.2883       4.7973       3.6569       17.4998      2838.0120    2244.3298    2262.2300    
