~Version Section
VERS.   2.0:  CWLS Log ASCII Standard - Version 2.0
WRAP.    NO:  One data record per depth sample.
~Well Information Section
#MNEM.UNIT      VALUE                    DESCRIPTION
#---------      ----------               -----------
STRT.M                   0               :START DEPTH
STOP.M          2540.96533               :STOP DEPTH
STEP.M               .1524               :STEP
NULL.          -999.250000               :NULL VALUE
COMP.                                    :Oil Company
WELL.             GABO-39               :Non unique well name
FLD.             
LOC.  6.625510, 5.251997             :Location
PROV.                                    :Province
SRVC.                                    :Service
DATE.           2013-08-20               :Date unloaded
UWI.         
~Curve Information Section
#MNEM.UNIT                   API CODE                 Curve Description
#---------                   ----------               -----------------
BOREHOLE-DEPTH.M                                   :DEPTH
BS_COMP.INCHES                                   :
CALI_COMP.INCHES                                   :
DRHO_COMP.G/C3                                   :
FCNL_COMP.HZ                                   :
GR_COMP.GAPI                                   :
NCNL_COMP.HZ                                   :
NPHI_COMP.V/V                                   :
RHOB_COMP.G/C3                                   :
RSHAL_COMP.OHMM                                   :
RT_COMP.OHMM                                   :
RXO_COMP.OHMM                                   :
SP_COMP.MEGV                                   :
TENS_COMP.LBF                                   :
TVDSS_COMP.M                                   :
TVD_COMP.M                                   :
~A
# ...
1848.4596    12.2500      12.4577      0.0212       108.6367     28.1014      268.3004     0.2559       2.1711       28.5098      38.8140      20.6314      3.3000       2391.9961    1783.3312    1801.2312    
1848.6121    12.2500      12.5075      0.0231       104.5250     23.4018      263.2128     0.2469       2.1891       28.7063      39.2627      21.8628      3.6998       2394.9988    1783.4720    1801.3719    
1848.7644    12.2500      12.5281      0.0262       105.4918     20.0013      260.0324     0.2393       2.1981       28.5742      39.3534      22.6135      4.0998       2383.0046    1783.6127    1801.5127    
1848.9169    12.2500      12.5361      0.0266       106.1997     18.6005      254.5255     0.2391       2.1915       28.0540      39.0823      21.0397      3.8001       2388.9978    1783.7535    1801.6534    
1849.0692    12.2500      12.5641      0.0238       108.8232     18.1002      261.8878     0.2480       2.1757       27.4163      38.3714      19.2898      3.4002       2393.9980    1783.8943    1801.7943    
1849.2217    12.2500      12.5395      0.0188       106.9773     18.0000      253.3158     0.2600       2.1623       26.8550      37.7590      18.3792      3.7998       2369.0095    1784.0352    1801.9351    
1849.3740    12.2500      12.5340      0.0154       98.9484      18.6997      211.4535     0.2666       2.1574       26.6085      37.4993      18.1971      4.1998       2364.0020    1784.1758    1802.0758    
1849.5264    12.2500      12.5571      0.0143       82.3813      19.7996      197.5365     0.2652       2.1562       26.6084      37.6715      18.1970      3.8002       2373.9961    1784.3167    1802.2166    
1849.6788    12.2500      12.5734      0.0155       77.5614      20.3998      181.8341     0.2583       2.1560       26.8514      38.1041      18.1970      3.3002       2381.9968    1784.4574    1802.3574    
1849.8312    12.2500      12.5666      0.0199       63.4273      20.3000      173.0737     0.2490       2.1560       26.6673      38.0166      18.9558      2.6003       2390.9966    1784.5981    1802.4980    
1849.9836    12.2500      12.5763      0.0255       59.3016      20.3000      174.2690     0.2422       2.1554       26.1805      37.4087      19.2308      2.2002       2368.0088    1784.7389    1802.6389    
1850.1360    12.2500      12.5800      0.0293       59.3000      20.7998      174.9997     0.2408       2.1527       25.3505      36.2232      18.2270      2.2000       2391.9907    1784.8796    1802.7795    
1850.2885    12.2500      12.5722      0.0298       52.1200      22.6993      150.8218     0.2469       2.1503       24.2665      34.6739      16.9907      2.2000       2402.9958    1785.0204    1802.9204    
1850.4408    12.2500      12.5471      0.0285       57.1777      24.2994      165.4006     0.2658       2.1409       23.1754      33.0404      16.0960      2.4999       2385.0068    1785.1611    1803.0612    
1850.5933    12.2500      12.5776      0.0246       60.7662      24.3000      168.6315     0.2884       2.1284       22.3379      32.0654      15.6992      2.6000       2394.9961    1785.3019    1803.2019    
1850.7456    12.2500      12.6196      0.0176       64.6040      23.7002      178.1369     0.2970       2.1168       21.9297      31.6249      15.8179      2.2002       2385.0039    1785.4427    1803.3427    
1850.8981    12.2500      12.6461      0.0084       62.2001      23.2002      183.2089     0.2865       2.1086       21.8781      31.6234      16.2674      1.8002       2381.0015    1785.5834    1803.4834    
1851.0504    12.2500      12.6340      0.0011       79.0873      22.5003      198.7128     0.2740       2.1039       21.9278      31.7686      16.6015      2.1998       2375.0024    1785.7241    1803.6241    
1851.2029    12.2500      12.6530      -0.0011      77.1024      20.6007      198.2190     0.2688       2.1035       21.9278      31.9141      16.9000      1.7002       2365.0039    1785.8649    1803.7649    
1851.3552    12.2500      12.6600      0.0008       77.3983      19.2005      218.5859     0.2667       2.1069       21.8772      31.7675      17.1850      0.8003       2367.9988    1786.0056    1803.9056    
1851.5076    12.2500      12.6581      0.0028       80.0322      19.9997      225.6155     0.2598       2.1145       21.7275      31.3343      17.4940      0.6001       2372.9980    1786.1464    1804.0464    
1851.6600    12.2500      12.6631      0.0040       85.9352      23.1988      234.8402     0.2480       2.1248       21.6772      31.1896      17.3436      0.7999       2374.9993    1786.2871    1804.1871    
1851.8124    12.2500      12.6998      0.0056       89.8969      26.2988      227.8152     0.2408       2.1371       21.6766      31.1892      16.8283      1.1998       2362.0051    1786.4279    1804.3279    
1851.9648    12.2500      12.7179      0.0091       85.7204      26.9997      229.8039     0.2428       2.1482       21.5749      31.2561      16.9001      1.4999       2360.0007    1786.5686    1804.4686    
1852.1172    12.2500      12.7433      0.0127       91.5758      27.0000      219.1292     0.2505       2.1548       20.8882      30.2619      18.1225      1.7999       2368.9966    1786.7094    1804.6093    
1852.2697    12.2500      12.7500      0.0157       88.8994      29.3991      234.9626     0.2630       2.1596       19.0545      27.5422      18.0430      1.9000       2352.0066    1786.8501    1804.7501    
1852.4220    12.2500      12.7500      0.0200       97.1843      34.7979      247.8700     0.2842       2.1655       17.0223      24.5479      16.0692      2.1999       2358.9973    1786.9908    1804.8907    
1852.5745    12.2500      12.7585      0.0236       107.1914     39.0983      259.6829     0.3159       2.1700       14.9665      21.4837      13.8896      2.5998       2349.0039    1787.1315    1805.0315    
1852.7268    12.2500      12.7921      0.0238       102.0958     39.3999      245.5367     0.3403       2.1638       13.6535      19.3763      12.6187      3.1998       2358.9961    1787.2722    1805.1722    
1852.8793    12.2500      12.8257      0.0199       90.3171      36.5011      228.5067     0.3474       2.1418       13.9695      19.8235      12.9638      3.2000       2366.9968    1787.4130    1805.3130    
1853.0316    12.2500      12.8182      0.0166       87.1136      32.3016      225.6212     0.3400       2.1101       15.6307      22.1816      13.9947      2.4003       2370.9985    1787.5537    1805.4537    
1853.1841    12.2500      12.7529      0.0169       84.9071      28.9013      225.1799     0.3252       2.0826       17.2575      24.6587      14.7575      2.2001       2380.9961    1787.6945    1805.5944    
1853.3364    12.2500      12.7102      0.0203       89.1858      26.6009      225.0001     0.3112       2.0645       18.8328      26.9722      15.2869      2.1000       2374.0027    1787.8351    1805.7351    
1853.4888    12.2500      12.7084      0.0231       97.8872      25.5004      234.6837     0.3019       2.0527       19.7199      28.3078      15.4169      2.2999       2363.0044    1787.9760    1805.8759    
1853.6412    12.2500      12.7291      0.0222       95.1261      25.6999      242.3017     0.2969       2.0417       19.7224      28.3777      15.0577      2.1001       2363.9995    1788.1166    1806.0166    
1853.7936    12.2500      12.7874      0.0196       93.5455      26.2998      237.2598     0.2952       2.0349       19.3207      28.1197      14.4592      2.2000       2359.0020    1788.2573    1806.1573    
1853.9460    12.2500      12.8140      0.0205       96.0615      25.8002      249.1359     0.2976       2.0377       19.0986      27.9899      14.1449      2.5998       2362.9985    1788.3979    1806.2980    
1854.0984    12.2500      12.7961      0.0258       99.2839      23.8008      234.3808     0.3029       2.0482       18.8794      27.8607      13.9508      2.7999       2375.9949    1788.5387    1806.4387    
1854.2509    12.2500      12.7900      0.0320       99.9997      21.3010      247.6822     0.3068       2.0582       18.5358      27.6056      12.7681      3.0999       2364.0046    1788.6794    1806.5793    
