~Version Section
VERS.   2.0:  CWLS Log ASCII Standard - Version 2.0
WRAP.    NO:  One data record per depth sample.
~Well Information Section
#MNEM.UNIT      VALUE                    DESCRIPTION
#---------      ----------               -----------
STRT.M                   0               :START DEPTH
STOP.M          2540.96533               :STOP DEPTH
STEP.M               .1524               :STEP
NULL.          -999.250000               :NULL VALUE
COMP.                                    :Oil Company
WELL.             GABO-39               :Non unique well name
FLD.             
LOC.  6.625510, 5.251997             :Location
PROV.                                    :Province
SRVC.                                    :Service
DATE.           2013-08-20               :Date unloaded
UWI.         
~Curve Information Section
#MNEM.UNIT                   API CODE                 Curve Description
#---------                   ----------               -----------------
BOREHOLE-DEPTH.M                                   :DEPTH
BS_COMP.INCHES                                   :
CALI_COMP.INCHES                                   :
DRHO_COMP.G/C3                                   :
FCNL_COMP.HZ                                   :
GR_COMP.GAPI                                   :
NCNL_COMP.HZ                                   :
NPHI_COMP.V/V                                   :
RHOB_COMP.G/C3                                   :
RSHAL_COMP.OHMM                                   :
RT_COMP.OHMM                                   :
RXO_COMP.OHMM                                   :
SP_COMP.MEGV                                   :
TENS_COMP.LBF                                   :
TVDSS_COMP.M                                   :
TVD_COMP.M                                   :
~A
# ...
2306.1169    12.2500      13.3194      0.0443       131.1886     94.7496      284.4987     0.3630       2.3833       6.9028       7.3627       12.1711      -12.2014     2806.0000    2197.0356    2214.9355    
2306.2693    12.2500      13.3660      0.0442       132.3810     89.2353      278.7435     0.3628       2.3779       6.9499       7.3283       11.9493      -11.7008     2828.9639    2197.1704    2215.0706    
2306.4216    12.2500      13.3947      0.0458       125.2846     83.8990      265.1619     0.3564       2.3703       6.9501       7.3114       12.3451      -11.7000     2823.0095    2197.3054    2215.2056    
2306.5740    12.2500      13.4092      0.0492       119.3843     79.8306      254.6961     0.3534       2.3705       6.9339       7.2777       13.0010      -12.2991     2824.9968    2197.4404    2215.3403    
2306.7263    12.2500      13.4310      0.0526       111.5124     77.7338      256.0057     0.3552       2.3790       6.8239       7.2115       13.1823      -11.5013     2791.0535    2197.5752    2215.4753    
2306.8789    12.2500      13.4807      0.0523       105.6342     77.5257      260.7309     0.3553       2.3858       6.7916       7.2110       12.8111      -10.5016     2814.9624    2197.7102    2215.6104    
2307.0312    12.2500      13.5468      0.0468       113.6904     78.5414      274.6968     0.3507       2.3829       6.6528       7.1775       12.2177      -9.3019      2844.9529    2197.8452    2215.7451    
2307.1836    12.2500      13.5742      0.0413       128.6952     80.2064      286.8637     0.3476       2.3747       6.4866       7.0466       12.3820      -8.8008      2825.0315    2197.9802    2215.8801    
2307.3359    12.2500      13.5288      0.0425       132.0339     82.5510      279.1840     0.3560       2.3701       6.3388       6.8080       13.3871      -8.4006      2823.0032    2198.1150    2216.0151    
2307.4885    12.2500      13.4520      0.0509       129.6415     85.0254      272.4725     0.3738       2.3722       6.1521       6.5469       12.6164      -7.8009      2829.9890    2198.2500    2216.1501    
2307.6409    12.2500      13.4187      0.0604       127.8622     85.5422      271.7063     0.3838       2.3713       5.9577       6.3105       10.3122      -7.6003      2813.0269    2198.3850    2216.2849    
2307.7932    12.2500      13.3873      0.0647       123.8813     81.6389      272.6197     0.3729       2.3517       5.9436       6.1958       9.1776       -8.2989      2813.0000    2198.5200    2216.4199    
2307.9456    12.2500      13.2697      0.0599       123.5902     73.2943      268.2880     0.3485       2.3064       6.0813       6.3682       10.4648      -11.1954     2811.0032    2198.6548    2216.5549    
2308.0981    12.2500      13.1511      0.0462       127.2794     64.0458      275.3638     0.3273       2.2436       6.2658       6.6520       14.5794      -16.6913     2849.9387    2198.7898    2216.6899    
2308.2505    12.2500      13.1282      0.0287       128.5429     57.2295      280.6012     0.3165       2.1820       6.4411       6.8856       18.6303      -21.8918     2849.0015    2198.9248    2216.8250    
2308.4028    12.2500      13.1967      0.0137       130.4658     52.8702      283.1834     0.3119       2.1377       6.5451       6.9971       19.9340      -26.1932     2851.9954    2199.0598    2216.9597    
2308.5552    12.2500      13.3345      0.0055       134.2324     49.3883      288.7997     0.3076       2.1134       6.3969       6.8541       19.1926      -29.0954     2813.0615    2199.1948    2217.0947    
2308.7075    12.2500      13.3177      0.0052       137.4286     45.7869      289.0173     0.3021       2.1040       6.0958       6.4722       17.6899      -31.2965     2799.0220    2199.3296    2217.2297    
2308.8601    12.2500      13.1657      0.0091       140.1559     41.5301      286.8160     0.2954       2.1026       5.7818       6.1247       16.4415      -32.3983     2810.9812    2199.4646    2217.3647    
2309.0125    12.2500      12.9213      0.0126       136.4278     35.9385      283.3960     0.2855       2.1062       5.5473       5.9167       15.6117      -33.2986     2811.9985    2199.5996    2217.4995    
2309.1648    12.2500      12.7783      0.0128       133.7737     29.6038      288.1331     0.2701       2.1144       5.4581       5.8757       15.0585      -33.3000     2819.9873    2199.7346    2217.6345    
2309.3171    12.2500      12.7380      0.0108       134.0874     24.5821      283.7569     0.2504       2.1263       5.4456       6.0120       16.2052      -33.0005     2815.0078    2199.8696    2217.7695    
2309.4697    12.2500      12.7114      0.0096       128.2436     21.9183      277.8374     0.2325       2.1392       5.5717       6.2657       19.7327      -32.6006     2793.0347    2200.0044    2217.9045    
2309.6221    12.2500      12.5564      0.0114       124.5137     20.8815      277.4810     0.2216       2.1493       5.7013       6.5155       24.3677      -32.7997     2788.0078    2200.1394    2218.0396    
2309.7744    12.2500      12.4246      0.0160       125.9879     20.2471      276.7706     0.2192       2.1559       5.8074       6.6677       26.1701      -33.0995     2797.9841    2200.2744    2218.1746    
2309.9268    12.2500      12.4113      0.0210       122.1000     19.6226      277.3990     0.2228       2.1600       5.9014       6.7755       24.9472      -33.2997     2819.9653    2200.4094    2218.3093    
2310.0793    12.2500      12.4048      0.0236       121.9144     19.4412      277.8352     0.2282       2.1603       5.8881       6.7297       23.5900      -33.0005     2817.0046    2200.5444    2218.4443    
2310.2317    12.2500      12.4124      0.0216       123.0919     20.0098      277.7647     0.2331       2.1541       5.8079       6.6377       23.2814      -32.7005     2814.0046    2200.6794    2218.5793    
2310.3840    12.2500      12.4328      0.0162       124.5446     20.8716      276.6424     0.2380       2.1429       5.7676       6.5766       23.2809      -33.1992     2803.0173    2200.8142    2218.7144    
2310.5364    12.2500      12.4489      0.0113       125.3659     21.2650      277.7873     0.2447       2.1326       5.7014       6.5012       23.2809      -33.7990     2795.0127    2200.9492    2218.8494    
2310.6887    12.2500      12.4514      0.0091       122.6099     20.7371      270.7455     0.2524       2.1266       5.5727       6.3686       24.1257      -34.2992     2808.9778    2201.0842    2218.9844    
2310.8413    12.2500      12.4389      0.0079       124.5048     19.9427      267.8640     0.2571       2.1229       5.5717       6.3240       25.3223      -34.0005     2791.0286    2201.2192    2219.1194    
2310.9937    12.2500      12.4261      0.0062       124.8003     19.3372      262.4148     0.2577       2.1191       5.5209       6.2519       23.5224      -33.8003     2795.9922    2201.3542    2219.2542    
2311.1460    12.2500      12.4237      0.0050       118.6503     19.3876      257.4609     0.2575       2.1174       5.4829       6.1948       21.3550      -33.3008     2807.9810    2201.4893    2219.3892    
2311.2983    12.2500      12.4402      0.0066       115.1118     20.2896      254.2082     0.2601       2.1204       5.4577       6.2085       21.1653      -33.3000     2813.9905    2201.6243    2219.5242    
2311.4509    12.2500      12.4591      0.0106       110.0237     21.8823      250.6034     0.2622       2.1269       5.4450       6.1802       21.6442      -33.3000     2824.9827    2201.7593    2219.6592    
2311.6033    12.2500      12.4771      0.0130       106.5134     23.0574      254.6186     0.2581       2.1326       5.4203       6.1382       23.2767      -33.5995     2823.0032    2201.8940    2219.7942    
2311.7556    12.2500      12.4791      0.0124       110.3298     23.1998      261.4111     0.2483       2.1360       5.4576       6.2084       25.1572      -33.1008     2811.0190    2202.0291    2219.9292    
2311.9080    12.2500      12.4256      0.0117       109.5481     23.5990      269.3078     0.2396       2.1387       5.5081       6.2372       26.1713      -33.0002     2814.9937    2202.1641    2220.0642    
