~Version Information Block
VERS .                 2.00:  CWLS LOG ASCII STANDARD - VERSION 2.00
WRAP .                   NO:  One line per depth step
~Well Information Block
#MNEM.UNIT        Data Type   Information
#---------- ----------------  -----------
STRT .M              0.0000:  START DEPTH
STOP .M           2699.9172:  STOP DEPTH
STEP .M              0.1524:  STEP
NULL .              -999.25:  NULL VALUE
COMP .                     :  COMPANY
WELL .              GABO-12:  WELL
FLD  .                     :  FIELD
LOC  .                     :  LOCATION
CTRY .                     :  COUNTRY
STAT .                     :  STATE
CNTY .                     :  COUNTY
API  .                     :  API NUMBER
UWI  .                     :  UNIQUE WELL ID
SRVC .                     :  SERVICE COMPANY
DATE .                     :  LOG DATE
~Curve Information Block
#MNEM.UNIT         API CODE   Curve Description
#---------- ----------------  -----------------
DEPTH.M                    :  Reference Depth
DT_COMP.US/F              0:  Comprerssional Sonic
ECART_COMP.                :  Neutron Density Seperation 
GR_COMP.GAPI              0:  Gamma Ray
NPHI_COMP.V/V             0:  Neutron
PEF_COMP.B/E              0:  Photo Electric Factor
RHOB_COMP.G/C3            0:  Bulk Density
RDeep_COMP.OHMM           0:  Deep Resistivity
RSHal_COMP.OHMM           0:  Shallow Resistivity
SP_COMP.MV                0:  Spontaneous
TVDSS_COMP.M               :  Reference TVD sub-sea log.
TVD_COMP.M                 :  Reference TVD log.
~Parameter Information Block
#MNEM.UNIT            Value   Description
#---------- ----------------  -----------
SET  .                  LCS:  
DFD  .LB/G            9.596:  Drilling fluid density
LITHSCALE.            LIMESTONE:  Neutron lithology scale
MUDBASE.                WATER:  Type of mud base
MUDTYPE.               NORMAL:  Type of mud
OPT_BSCO.LOGICAL                0:  Borehole salinity corrn option
OPT_CACO.LOGICAL                1:  Remove acquisition caliper corr?
OPT_FSCO.                   NO:  Formation salinity corrn option
OPT_HSCO.LOGICAL                1:  (Re)Apply hole size corrn option
OPT_MCCO.LOGICAL                1:  Mudcake correction option
OPT_MWCO.LOGICAL                1:  Mud weight correction option
OPT_PTCO_P.LOGICAL                1:  Pressure correction option
OPT_PTCO_T.LOGICAL                1:  Temperature correction option
OPT_SOCO.LOGICAL                1:  Standoff correction option
POST76.LOGICAL                1:  NPHI log is post Jan 1976
SALM .PPM             50000:  Salinity of mud
SALMF.PPM             50000:  Salinity of mud filtrate
SALW .PPM             50000:  Salinity of formation water
SOCN .INS               0.5:  Standoff for neutron tool
~Other Information Block
COMMENT:
$$MUX      Data from LAS tape
$$MUX      fevsbd 08/10/97 ng95603  ASCII:      OB050.fod
$$MUX
$$MUX
#        DEPTH        DT_COMP     ECART_COMP        GR_COMP      NPHI_COMP       PEF_COMP      RHOB_COMP       RDeep_COMP    RShal_COMP        SP_COMP     TVDSS_COMP       TVD_COMP 
~A
# ...
     2596.8948        94.3490         9.4071       137.4519       0.409840         3.3799         2.4873         2.0732         2.7475         2.1589      2580.0068      2595.2068
     2597.0472        95.3670         6.7879       134.6767       0.353456         3.7222         2.4503         1.9540         2.6528         2.6362      2580.1590      2595.3590
     2597.1996        94.5070         9.5244       128.8131       0.388712         3.9006         2.5284         1.8965         2.5201         2.6142      2580.3113      2595.5113
     2597.3520        95.6160         3.5550       117.5574       0.314600         3.7840         2.3534         1.8504         2.5498         2.0892      2580.4635      2595.6635
     2597.5044        95.8730         5.9602       115.6367       0.365584         4.1024         2.3887         1.8014         2.6333         1.3122      2580.6157      2595.8157
     2597.6568        95.3790         4.3465       120.7417       0.372944         3.6715         2.2958         1.8139         2.7332         0.5313      2580.7679      2595.9679
     2597.8092        97.9790         6.4231       129.7348       0.401768         3.6333         2.3515         1.8041         2.8342         0.0290      2580.9201      2596.1201
     2597.9616        95.8920         7.0550       129.1919       0.390096         3.8284         2.4026         1.8149         2.8400         0.0121      2581.0723      2596.2723
     2598.1140        94.0150         7.1790       130.8040       0.378096         3.4392         2.4288         1.7783         2.8658        -0.0207      2581.2246      2596.4246
     2598.2664        97.7200        10.0502       133.6631       0.462320         4.0034         2.4320         1.7542         2.9096         0.2270      2581.3768      2596.5768
     2598.4188        96.2620        10.2651       139.9554       0.472920         3.6300         2.4251         1.7580         2.7106         0.7260      2581.5290      2596.7290
     2598.5712        97.4900         8.3157       146.5631       0.414472         4.1091         2.4250         1.7064         2.5959         1.4780      2581.6812      2596.8812
     2598.7236        97.0040         8.7034       148.5672       0.421936         4.1557         2.4319         1.6247         2.6277         1.7022      2581.8334      2597.0334
     2598.8760        98.1160         9.6325       150.6850       0.470608         2.9418         2.3973         1.5526         2.5982         2.1692      2581.9856      2597.1856
     2599.0284       100.2330         9.4614       140.8921       0.456120         4.2395         2.4129         1.5153         2.4284         2.4210      2582.1379      2597.3379
     2599.1808        98.1420         9.4997       129.2383       0.456000         3.6826         2.4150         1.4456         2.3536         2.6393      2582.2901      2597.4901
     2599.3332       100.7290         7.8533       126.1898       0.411360         3.1503         2.4071         1.4202         2.2340         3.1350      2582.4423      2597.6423
     2599.4856       102.6100         9.7777       124.8139       0.465560         3.4952         2.4130         1.3833         2.2558         3.3900      2582.5945      2597.7945
     2599.6380       102.9970         6.7644       128.6956       0.378704         3.9345         2.4070         1.3622         2.1935         3.3980      2582.7467      2597.9467
     2599.7904       105.2320         6.8326       128.5901       0.387920         3.8467         2.3951         1.3531         2.1900         3.4049      2582.8989      2598.0989
     2599.9428       104.5060         5.2990       133.2167       0.344352         3.5087         2.3910         1.3897         2.1821         3.3802      2583.0512      2598.2512
     2600.0952       102.3920         9.4068       135.5763       0.419392         3.6975         2.4714         1.4138         2.2901         3.3512      2583.2034      2598.4034
     2600.2476       101.1350         9.1226       132.2559       0.431904         3.2129         2.4363         1.4457         2.3148         3.5712      2583.3556      2598.5556
     2600.4000       102.1170         8.4388       130.4176       0.409184         3.5483         2.4400         1.5135         2.4192         3.3270      2583.5078      2598.7078
     2600.5524        99.3970         3.9231       124.4579       0.296904         3.2832         2.4013         1.6023         2.4567         2.8359      2583.6600      2598.8600
     2600.7048        99.0030         9.4551       120.2783       0.416032         3.4596         2.4794         1.7191         2.5284         2.0652      2583.8122      2599.0122
     2600.8572        94.5360         9.9828       124.1803       0.401128         5.4956         2.5306         1.9591         2.6351         1.5690      2583.9645      2599.1645
     2601.0096        94.2520         4.6960       119.5744       0.373224         4.5121         2.3128         1.9650         3.4415         1.2922      2584.1167      2599.3167
     2601.1620        89.4140         7.8343       115.1028       0.419624         4.3532         2.3923         1.8747         4.0849         1.0142      2584.2689      2599.4689
     2601.3144        87.8870         4.3748       109.2747       0.311872         3.9195         2.3990         1.9415         3.9352         0.5220      2584.4211      2599.6211
     2601.4668        89.9830         6.2711       114.5332       0.334808         4.0073         2.4555         2.0769         3.3715         0.2452      2584.5733      2599.7733
     2601.6192        89.8760         9.1502       111.5048       0.423288         3.7134         2.4520         2.1693         2.8035         0.9592      2584.7255      2599.9255
     2601.7716        93.5950         3.8298       110.6021       0.386304         3.4531         2.2476         2.1254         2.7613         0.9690      2584.8778      2600.0778
     2601.9240        93.7490         9.5204       116.6948       0.430640         3.2714         2.4583         2.0575         2.7580         1.4729      2585.0300      2600.2300
     2602.0764        94.6180         5.5656       113.9535       0.468696         3.9694         2.1971         1.9955         2.7649         1.2399      2585.1822      2600.3822
     2602.2288        94.3770         4.6141       122.6993       0.446184         4.1159         2.1871         1.9494         2.8801         1.4652      2585.3344      2600.5344
     2602.3812        93.7550         4.7654       116.6841       0.386480         4.0942         2.2941         1.9302         2.8731         1.6922      2585.4866      2600.6866
     2602.5336        93.2540         5.2891       121.7785       0.429648         4.3341         2.2484         1.9469         2.8323         1.9172      2585.6388      2600.8388
     2602.6860        95.1100         6.2523       113.5784       0.417104         4.4134         2.3174         1.9321         2.9530         1.9299      2585.7911      2600.9911
     2602.8384        94.8770         5.5061       118.2121       0.393192         3.7920         2.3200         1.9370         2.9520         1.6939      2585.9433      2601.1433
     2602.9908        97.7270         3.5557       122.8450       0.348360         3.6888         2.2972         1.9350         2.9153         2.1692      2586.0955      2601.2955
     2603.1432        97.5020         4.6576       134.5043       0.382720         4.5560         2.2950         1.9231         2.8763         2.4002      2586.2477      2601.4477
     2603.2956        95.5160         9.2563       135.3837       0.456408         4.3378         2.4021         1.8774         2.8720         2.6292      2586.3999      2601.5999
     2603.4480        96.6160         5.9999       137.9464       0.367720         3.9114         2.3871         1.8522         2.8343         2.6102      2586.5521      2601.7521
     2603.6004        97.1210         9.8223       137.5603       0.491991         4.1114         2.3711         1.7687         2.8509         2.3412      2586.7044      2601.9044
