~Version Information Block
VERS .                 2.00:  CWLS LOG ASCII STANDARD - VERSION 2.00
WRAP .                   NO:  One line per depth step
~Well Information Block
#MNEM.UNIT        Data Type   Information
#---------- ----------------  -----------
STRT .M              0.0000:  START DEPTH
STOP .M           2699.9172:  STOP DEPTH
STEP .M              0.1524:  STEP
NULL .              -999.25:  NULL VALUE
COMP .                     :  COMPANY
WELL .              GABO-12:  WELL
FLD  .                     :  FIELD
LOC  .                     :  LOCATION
CTRY .                     :  COUNTRY
STAT .                     :  STATE
CNTY .                     :  COUNTY
API  .                     :  API NUMBER
UWI  .                     :  UNIQUE WELL ID
SRVC .                     :  SERVICE COMPANY
DATE .                     :  LOG DATE
~Curve Information Block
#MNEM.UNIT         API CODE   Curve Description
#---------- ----------------  -----------------
DEPTH.M                    :  Reference Depth
DT_COMP.US/F              0:  Comprerssional Sonic
ECART_COMP.                :  Neutron Density Seperation 
GR_COMP.GAPI              0:  Gamma Ray
NPHI_COMP.V/V             0:  Neutron
PEF_COMP.B/E              0:  Photo Electric Factor
RHOB_COMP.G/C3            0:  Bulk Density
RDeep_COMP.OHMM           0:  Deep Resistivity
RSHal_COMP.OHMM           0:  Shallow Resistivity
SP_COMP.MV                0:  Spontaneous
TVDSS_COMP.M               :  Reference TVD sub-sea log.
TVD_COMP.M                 :  Reference TVD log.
~Parameter Information Block
#MNEM.UNIT            Value   Description
#---------- ----------------  -----------
SET  .                  LCS:  
DFD  .LB/G            9.596:  Drilling fluid density
LITHSCALE.            LIMESTONE:  Neutron lithology scale
MUDBASE.                WATER:  Type of mud base
MUDTYPE.               NORMAL:  Type of mud
OPT_BSCO.LOGICAL                0:  Borehole salinity corrn option
OPT_CACO.LOGICAL                1:  Remove acquisition caliper corr?
OPT_FSCO.                   NO:  Formation salinity corrn option
OPT_HSCO.LOGICAL                1:  (Re)Apply hole size corrn option
OPT_MCCO.LOGICAL                1:  Mudcake correction option
OPT_MWCO.LOGICAL                1:  Mud weight correction option
OPT_PTCO_P.LOGICAL                1:  Pressure correction option
OPT_PTCO_T.LOGICAL                1:  Temperature correction option
OPT_SOCO.LOGICAL                1:  Standoff correction option
POST76.LOGICAL                1:  NPHI log is post Jan 1976
SALM .PPM             50000:  Salinity of mud
SALMF.PPM             50000:  Salinity of mud filtrate
SALW .PPM             50000:  Salinity of formation water
SOCN .INS               0.5:  Standoff for neutron tool
~Other Information Block
COMMENT:
$$MUX      Data from LAS tape
$$MUX      fevsbd 08/10/97 ng95603  ASCII:      OB050.fod
$$MUX
$$MUX
#        DEPTH        DT_COMP     ECART_COMP        GR_COMP      NPHI_COMP       PEF_COMP      RHOB_COMP       RDeep_COMP    RShal_COMP        SP_COMP     TVDSS_COMP       TVD_COMP 
~A
# ...
     2041.3971        95.5360         7.4048       145.9038       0.375072         4.0305         2.4451         4.3327         3.2988       -10.8359      2025.4875      2040.6875
     2041.5495        92.2760         5.3632       144.0979       0.290680         5.7055         2.4837         4.9996         4.0837       -11.6296      2025.6397      2040.8397
     2041.7019        97.0860         3.5280       128.0205       0.286032         4.3431         2.3997         5.9266         5.2318       -11.6489      2025.7920      2040.9920
     2041.8543        99.7290         3.7448        96.2858       0.346512         2.9412         2.3097         6.5371         5.6586       -11.9109      2025.9442      2041.1442
     2042.0067       103.8420         2.7877        63.8415       0.347992         2.5074         2.2594         6.7275         5.6303       -12.0499      2026.0965      2041.2965
     2042.1591       108.8350        -0.5531        50.8854       0.300384         2.6280         2.1717         6.9224         5.5774       -11.8159      2026.2488      2041.4488
     2042.3115       109.1230        -2.8153        42.7240       0.236512         2.5496         2.1650         7.0331         5.9659       -11.9509      2026.4010      2041.6010
     2042.4639       107.7610        -3.3492        42.3664       0.230048         2.3179         2.1491         6.8693         6.7090       -11.5929      2026.5533      2041.7533
     2042.6163       109.3620         0.6742        46.1187       0.319280         2.5858         2.2016         6.6884         6.9253       -11.7269      2026.7055      2041.9055
     2042.7687       106.6470         1.6458        55.4817       0.372576         2.9848         2.1613         6.6027         5.8368       -12.0196      2026.8578      2042.0578
     2042.9211       105.5090         0.5555        67.5910       0.353160         2.8005         2.1392         6.4929         5.4758       -12.6241      2027.0101      2042.2101
     2043.0735       104.3840         1.2807        68.6334       0.373832         2.9051         2.1410         6.3700         5.2895       -13.1379      2027.1623      2042.3623
     2043.2259       104.9950         1.0089        72.4582       0.290672         3.5161         2.2660         6.3482         5.4497       -13.4961      2027.3146      2042.5146
     2043.3783       106.1160         0.7421        74.9244       0.308848         3.6728         2.2224         6.2805         5.9351       -13.7599      2027.4668      2042.6668
     2043.5307       106.0010         4.3046        77.6264       0.405224         3.7801         2.2399         6.1620         6.2435       -13.9296      2027.6191      2042.8191
     2043.6831       105.5040         2.4948        81.3561       0.321680         3.9675         2.2886         5.9318         6.6180       -13.9449      2027.7714      2042.9714
     2043.8355       102.4000         0.9523        78.9328       0.309096         2.7538         2.2325         5.8149         6.8293       -13.3062      2027.9236      2043.1236
     2043.9879       102.4990         3.0232        79.9070       0.338760         2.9374         2.2866         5.8854         6.4560       -12.6949      2028.0759      2043.2759
     2044.1403       102.9960         3.8204        75.2933       0.403480         2.5035         2.2186         5.9544         5.9114       -12.2069      2028.2281      2043.4281
     2044.2927       105.3560         2.7090        77.8283       0.348448         2.6875         2.2547         5.9937         5.1828       -12.1226      2028.3804      2043.5804
     2044.4451       106.1190         5.7091        81.5015       0.414464         2.9588         2.2947         6.1795         4.6562       -12.3829      2028.5327      2043.7327
     2044.5975       105.3810         4.1527        82.0875       0.384248         2.8896         2.2672         6.4836         4.3683       -11.6539      2028.6849      2043.8849
     2044.7499        98.5550        -3.1942        75.9416       0.240160         2.6658         2.1400         7.4959         4.4642       -11.0716      2028.8372      2044.0372
     2044.9023        90.8120        -1.5603        74.0062       0.145752         3.1094         2.3791         8.7123         5.5334       -10.3369      2028.9894      2044.1894
     2045.0547        89.7332         1.5351        68.9268       0.120200         4.2022         2.5764         8.7170        13.2776       -10.3439      2029.1417      2044.3417
     2045.2071        88.7082         3.3853        77.2634       0.108096         5.9272         2.6891         8.4224        26.7697       -10.3569      2029.2939      2044.4939
     2045.3595        87.6832         6.5678        75.1843       0.204224         3.8667         2.6880         8.6372        26.0953       -10.6486      2029.4462      2044.6462
     2045.5119        86.6582         8.3591        78.1212       0.315112         3.2994         2.5928         8.8453        13.9410       -10.7571      2029.5985      2044.7985
     2045.6643        85.6332         2.5734        76.1997       0.293184         3.8545         2.3400         8.5772         7.9793       -11.2976      2029.7507      2044.9507
     2045.8167        95.6690         0.2649        80.3623       0.287048         2.9890         2.2348         7.1346         6.3607       -11.1601      2029.9030      2045.1030
     2045.9691       102.8180        -0.1435        97.9028       0.291960         2.5604         2.2062         5.5864         6.3500       -11.3266      2030.0552      2045.2552
     2046.1215       107.4630         1.9167       110.2565       0.333664         2.4052         2.2397         4.5572         6.6367       -11.2179      2030.2075      2045.4075
     2046.2739       102.2920         4.5390       115.5680       0.380624         3.2551         2.2926         3.9885         5.5825       -10.6099      2030.3598      2045.5598
     2046.4263       105.1020         6.2861       120.1296       0.398856         3.5229         2.3495         3.6170         4.4312        -9.5942      2030.5120      2045.7120
     2046.5787       103.5130         7.9335       118.7683       0.386104         3.4437         2.4532         3.3710         3.4637        -9.2279      2030.6643      2045.8643
     2046.7311       105.4840         5.6915       126.5105       0.379056         3.2109         2.3528         2.9414         3.1663        -8.8966      2030.8165      2046.0165
     2046.8835       110.0880         7.3333       124.9699       0.427608         2.9471         2.3540         2.5462         3.3059        -8.7521      2030.9688      2046.1688
     2047.0359       108.7610         5.3825       132.4754       0.398240         3.3289         2.3054         2.3426         3.3874        -9.4146      2031.1211      2046.3211
     2047.1883       112.0980         7.6813       131.4240       0.440656         3.8419         2.3496         2.2269         3.4862        -9.1849      2031.2733      2046.4733
     2047.3407       113.8610         5.5308       130.2910       0.450920         3.5236         2.2250         2.1863         3.3620        -8.4826      2031.4256      2046.6256
     2047.4931       115.2390         7.1071       127.7365       0.458936         3.9416         2.2905         2.1642         2.9533        -7.3431      2031.5778      2046.7778
     2047.6455       118.9700         6.4587       131.4717       0.471896         3.3329         2.2364         2.0876         2.6970        -6.7269      2031.7301      2046.9301
     2047.7979       116.0240         9.3566       129.9426       0.554336         3.0899         2.2439         2.0007         2.7446        -6.6426      2031.8824      2047.0824
     2047.9503       115.7520         6.8140       133.9595       0.475640         2.9888         2.2480         2.0129         2.6696        -5.9109      2032.0346      2047.2346
     2048.1027       118.9740         5.1069       122.9074       0.436312         3.2360         2.2282         2.0864         2.5450        -5.6699      2032.1869      2047.3869
