~Version Information Block
VERS .                 2.00:  CWLS LOG ASCII STANDARD - VERSION 2.00
WRAP .                   NO:  One line per depth step
~Well Information Block
#MNEM.UNIT        Data Type   Information
#---------- ----------------  -----------
STRT .M              0.0000:  START DEPTH
STOP .M           2699.9172:  STOP DEPTH
STEP .M              0.1524:  STEP
NULL .              -999.25:  NULL VALUE
COMP .                     :  COMPANY
WELL .              GABO-12:  WELL
FLD  .                     :  FIELD
LOC  .                     :  LOCATION
CTRY .                     :  COUNTRY
STAT .                     :  STATE
CNTY .                     :  COUNTY
API  .                     :  API NUMBER
UWI  .                     :  UNIQUE WELL ID
SRVC .                     :  SERVICE COMPANY
DATE .                     :  LOG DATE
~Curve Information Block
#MNEM.UNIT         API CODE   Curve Description
#---------- ----------------  -----------------
DEPTH.M                    :  Reference Depth
DT_COMP.US/F              0:  Comprerssional Sonic
ECART_COMP.                :  Neutron Density Seperation 
GR_COMP.GAPI              0:  Gamma Ray
NPHI_COMP.V/V             0:  Neutron
PEF_COMP.B/E              0:  Photo Electric Factor
RHOB_COMP.G/C3            0:  Bulk Density
RDeep_COMP.OHMM           0:  Deep Resistivity
RSHal_COMP.OHMM           0:  Shallow Resistivity
SP_COMP.MV                0:  Spontaneous
TVDSS_COMP.M               :  Reference TVD sub-sea log.
TVD_COMP.M                 :  Reference TVD log.
~Parameter Information Block
#MNEM.UNIT            Value   Description
#---------- ----------------  -----------
SET  .                  LCS:  
DFD  .LB/G            9.596:  Drilling fluid density
LITHSCALE.            LIMESTONE:  Neutron lithology scale
MUDBASE.                WATER:  Type of mud base
MUDTYPE.               NORMAL:  Type of mud
OPT_BSCO.LOGICAL                0:  Borehole salinity corrn option
OPT_CACO.LOGICAL                1:  Remove acquisition caliper corr?
OPT_FSCO.                   NO:  Formation salinity corrn option
OPT_HSCO.LOGICAL                1:  (Re)Apply hole size corrn option
OPT_MCCO.LOGICAL                1:  Mudcake correction option
OPT_MWCO.LOGICAL                1:  Mud weight correction option
OPT_PTCO_P.LOGICAL                1:  Pressure correction option
OPT_PTCO_T.LOGICAL                1:  Temperature correction option
OPT_SOCO.LOGICAL                1:  Standoff correction option
POST76.LOGICAL                1:  NPHI log is post Jan 1976
SALM .PPM             50000:  Salinity of mud
SALMF.PPM             50000:  Salinity of mud filtrate
SALW .PPM             50000:  Salinity of formation water
SOCN .INS               0.5:  Standoff for neutron tool
~Other Information Block
COMMENT:
$$MUX      Data from LAS tape
$$MUX      fevsbd 08/10/97 ng95603  ASCII:      OB050.fod
$$MUX
$$MUX
#        DEPTH        DT_COMP     ECART_COMP        GR_COMP      NPHI_COMP       PEF_COMP      RHOB_COMP       RDeep_COMP    RShal_COMP        SP_COMP     TVDSS_COMP       TVD_COMP 
~A
# ...
     2425.4449        99.7340         9.1055       142.2052       0.470576         3.8816         2.3710         2.4116         3.3727        -0.4490      2408.8694      2424.0694
     2425.5973       100.1220        12.1024       144.9035       0.452152         3.8146         2.5515         2.3197         3.3264        -0.2327      2409.0215      2424.2215
     2425.7497       100.4970         9.1176       125.5393       0.468864         3.5472         2.3744         2.2605         3.4034         0.2670      2409.1735      2424.3735
     2425.9021       101.1200        13.1737       127.8084       0.532488         3.4210         2.4712         2.2620         3.3336         0.7234      2409.3255      2424.5255
     2426.0545       100.7530         7.9821       119.1053       0.409000         3.1948         2.4174         2.2134         3.3925         0.9700      2409.4775      2424.6775
     2426.2069       101.4940         7.7879       127.5017       0.401056         3.1702         2.4210         2.2140         3.2859         1.2220      2409.6296      2424.8296
     2426.3593       101.0040        11.6555       122.0961       0.502184         4.5519         2.4458         2.1793         3.2800         1.1804      2409.7816      2424.9816
     2426.5117       101.9920         8.7239       124.6401       0.477208         3.6791         2.3408         2.1354         3.2552         1.9180      2409.9336      2425.1336
     2426.6641       101.5040        10.4724       121.2822       0.461128         3.3952         2.4551         2.0894         3.2580         2.1670      2410.0856      2425.2856
     2426.8165       100.7560         9.9576       126.4124       0.451080         4.1420         2.4461         2.0771         3.2243         2.4120      2410.2377      2425.4377
     2426.9689       105.2140         7.5395       124.4184       0.411320         3.6451         2.3914         2.0403         3.2369         2.6570      2410.3897      2425.5897
     2427.1213       103.0180         5.1590       122.5182       0.422904         3.6598         2.2531         2.0460         3.0872         2.6610      2410.5417      2425.7417
     2427.2737       104.1160        11.8856       114.8061       0.527160         3.3654         2.4157         2.0063         3.0404         2.9040      2410.6937      2425.8937
     2427.4261       104.6210         8.0051       109.5340       0.427808         3.4622         2.3872         1.9733         3.0807         2.9080      2410.8458      2426.0458
     2427.5785       104.5010         9.9243        98.5582       0.458744         3.7983         2.4316         1.9542         3.1058         3.1590      2410.9978      2426.1978
     2427.7309       104.2520         5.5752        97.5663       0.426264         3.2078         2.2683         1.8786         3.1318         3.1709      2411.1498      2426.3498
     2427.8833       104.8700         9.6932       100.4616       0.448816         3.9063         2.4366         1.7659         3.1469         2.9260      2411.3018      2426.5018
     2428.0357       104.1310         9.3100       110.6461       0.481736         4.0191         2.3626         1.7690         3.1579         2.4072      2411.4539      2426.6539
     2428.1881       104.2490         9.2207       109.3680       0.450256         3.7403         2.4106         1.7650         3.0846         1.8782      2411.6059      2426.8059
     2428.3405       103.6300         7.8973       109.0505       0.475792         3.0932         2.3019         1.7640         2.9669         1.5972      2411.7579      2426.9579
     2428.4929       105.6090         9.7384       103.1049       0.460128         3.6009         2.4200         1.7452         2.9690         1.3192      2411.9099      2427.1099
     2428.6453       104.8810         9.6343       110.0506       0.477856         3.5554         2.3853         1.7281         2.9442         1.0710      2412.0619      2427.2619
     2428.7977       104.7510         8.3702       112.2259       0.468080         3.8665         2.3384         1.7072         2.9738         0.7932      2412.2140      2427.4140
     2428.9501       104.7500        10.4366       120.5827       0.460064         3.6617         2.4551         1.6534         3.0296         1.2890      2412.3660      2427.5660
     2429.1025       106.1140         8.9389       119.7969       0.434208         3.4279         2.4233         1.6282         3.0508         1.7602      2412.5180      2427.7180
     2429.2549       105.8770         7.7032       117.8239       0.409200         3.7742         2.4032         1.6042         2.9667         2.0150      2412.6700      2427.8700
     2429.4073       106.2470         7.1444       110.6299       0.416936         3.1362         2.3623         1.7220         2.7835         2.2362      2412.8220      2428.0220
     2429.5597       106.3740         8.8793       106.9026       0.432872         3.4157         2.4225         1.8004         2.6481         2.2410      2412.9741      2428.1741
     2429.7121       106.3750         7.3061       106.4831       0.495496         4.1273         2.2395         1.8615         2.5627         2.9562      2413.1261      2428.3261
     2429.8645       106.4990        12.1673       110.6742       0.514848         3.9425         2.4503         1.8967         2.5025         3.1743      2413.2781      2428.4781
     2430.0169       104.8880         4.8725       116.6104       0.347352         3.4936         2.3647         1.8593         2.5417         3.1780      2413.4301      2428.6301
     2430.1693       104.8750        12.7162       116.5132       0.517616         3.7985         2.4731         1.8402         2.6015         2.9330      2413.5821      2428.7821
     2430.3217       104.1310         7.7473       118.5496       0.434680         3.4637         2.3629         1.7894         2.7538         3.1810      2413.7341      2428.9341
     2430.4741       104.1250        10.6298       117.9639       0.447888         3.6485         2.4850         1.7642         2.7411         3.4022      2413.8862      2429.0862
     2430.6265       105.4890        11.4800       110.7779       0.407328         3.6391         2.5951         1.7481         2.7291         3.4070      2414.0382      2429.2382
     2430.7789       104.0120         8.0477       121.9366       0.399064         3.8632         2.4373         1.7073         2.9254         3.4169      2414.1902      2429.3902
     2430.9313       103.1320         8.4366       132.9301       0.401976         3.8729         2.4519         1.6862         3.1621         2.8932      2414.3422      2429.5422
     2431.0837       103.1250         4.3001       136.8283       0.311728         3.2609         2.3955         1.7158         3.1382         2.6122      2414.4942      2429.6942
     2431.2361       101.1410         9.4184       130.3237       0.422104         3.3135         2.4674         1.8539         2.9307         1.8680      2414.6463      2429.8463
     2431.3885       102.2410        12.3699       130.4535       0.510296         4.0143         2.4680         1.9919         2.6810         1.5862      2414.7983      2429.9983
     2431.5409       105.2260         6.1636       126.4562       0.403864         3.6034         2.3351         2.0624         2.5748         1.0592      2414.9503      2430.1503
     2431.6933       107.7300        10.3392       127.8713       0.453592         3.7934         2.4610         2.1533         2.4659         0.3140      2415.1023      2430.3023
     2431.8457       105.1460        10.2212       123.7384       0.491696         4.3704         2.3916         2.2502         2.4293        -0.9221      2415.2543      2430.4543
     2431.9981       103.2650        10.1935       127.7712       0.478112         4.1855         2.4128         2.4058         2.3824        -2.2008      2415.4064      2430.6064
     2432.1505       101.3900         7.9646       130.9496       0.398640         3.5442         2.4338         2.7175         2.5060        -3.7040      2415.5584      2430.7584
