~Version Information Block
VERS .                 2.00:  CWLS LOG ASCII STANDARD - VERSION 2.00
WRAP .                   NO:  One line per depth step
~Well Information Block
#MNEM.UNIT        Data Type   Information
#---------- ----------------  -----------
STRT .M              0.0000:  START DEPTH
STOP .M           2699.9172:  STOP DEPTH
STEP .M              0.1524:  STEP
NULL .              -999.25:  NULL VALUE
COMP .                     :  COMPANY
WELL .              GABO-12:  WELL
FLD  .                     :  FIELD
LOC  .                     :  LOCATION
CTRY .                     :  COUNTRY
STAT .                     :  STATE
CNTY .                     :  COUNTY
API  .                     :  API NUMBER
UWI  .                     :  UNIQUE WELL ID
SRVC .                     :  SERVICE COMPANY
DATE .                     :  LOG DATE
~Curve Information Block
#MNEM.UNIT         API CODE   Curve Description
#---------- ----------------  -----------------
DEPTH.M                    :  Reference Depth
DT_COMP.US/F              0:  Comprerssional Sonic
ECART_COMP.                :  Neutron Density Seperation 
GR_COMP.GAPI              0:  Gamma Ray
NPHI_COMP.V/V             0:  Neutron
PEF_COMP.B/E              0:  Photo Electric Factor
RHOB_COMP.G/C3            0:  Bulk Density
RDeep_COMP.OHMM           0:  Deep Resistivity
RSHal_COMP.OHMM           0:  Shallow Resistivity
SP_COMP.MV                0:  Spontaneous
TVDSS_COMP.M               :  Reference TVD sub-sea log.
TVD_COMP.M                 :  Reference TVD log.
~Parameter Information Block
#MNEM.UNIT            Value   Description
#---------- ----------------  -----------
SET  .                  LCS:  
DFD  .LB/G            9.596:  Drilling fluid density
LITHSCALE.            LIMESTONE:  Neutron lithology scale
MUDBASE.                WATER:  Type of mud base
MUDTYPE.               NORMAL:  Type of mud
OPT_BSCO.LOGICAL                0:  Borehole salinity corrn option
OPT_CACO.LOGICAL                1:  Remove acquisition caliper corr?
OPT_FSCO.                   NO:  Formation salinity corrn option
OPT_HSCO.LOGICAL                1:  (Re)Apply hole size corrn option
OPT_MCCO.LOGICAL                1:  Mudcake correction option
OPT_MWCO.LOGICAL                1:  Mud weight correction option
OPT_PTCO_P.LOGICAL                1:  Pressure correction option
OPT_PTCO_T.LOGICAL                1:  Temperature correction option
OPT_SOCO.LOGICAL                1:  Standoff correction option
POST76.LOGICAL                1:  NPHI log is post Jan 1976
SALM .PPM             50000:  Salinity of mud
SALMF.PPM             50000:  Salinity of mud filtrate
SALW .PPM             50000:  Salinity of formation water
SOCN .INS               0.5:  Standoff for neutron tool
~Other Information Block
COMMENT:
$$MUX      Data from LAS tape
$$MUX      fevsbd 08/10/97 ng95603  ASCII:      OB050.fod
$$MUX
$$MUX
#        DEPTH        DT_COMP     ECART_COMP        GR_COMP      NPHI_COMP       PEF_COMP      RHOB_COMP       RDeep_COMP    RShal_COMP        SP_COMP     TVDSS_COMP       TVD_COMP 
~A
# ...
     2638.0428       102.1080         2.9559       116.1527       0.268664         3.4923         2.4000         5.3369         7.8473       -16.1428      2621.1053      2636.3053
     2638.1952       101.7530         3.5948       120.1522       0.317600         4.1467         2.3504         5.2527         7.6893       -15.1708      2621.2575      2636.4575
     2638.3476       101.7500         3.1701       128.7866       0.322960         4.4625         2.3202         5.1617         7.2714       -14.6571      2621.4098      2636.6098
     2638.5000       101.7500        -1.1584       129.4323       0.224792         2.9403         2.2674         5.0439         6.5845       -14.1778      2621.5620      2636.7620
     2638.6524        99.6420         2.0075       126.8161       0.258720         3.6760         2.3692         4.8634         6.0294       -14.9150      2621.7142      2636.9142
     2638.8048        98.1370         5.1747       127.3585       0.377047         4.0401         2.3303         4.6715         6.6420       -15.1898      2621.8664      2637.0664
     2638.9572        99.2410         4.3204       125.1776       0.376016         3.8724         2.2893         4.6869         7.0547       -15.1821      2622.0186      2637.2186
     2639.1096        99.0020         1.4564       137.1999       0.259936         3.1042         2.3396         4.6146         7.4062       -14.4588      2622.1708      2637.3708
     2639.2620        98.8760         5.0707       132.8875       0.296696         3.8727         2.4590         4.5307         7.6014       -14.7218      2622.3231      2637.5231
     2639.4144        99.9910         4.8619       129.0367       0.335688         3.5556         2.3836         4.4397         7.5455       -14.2488      2622.4753      2637.6753
     2639.5668       100.6200         3.3588       123.3913       0.308224         4.2097         2.3542         4.3646         7.0550       -12.7461      2622.6275      2637.8275
     2639.7192        97.5250         4.9934       124.1842       0.337760         3.8837         2.3867         4.2807         6.7117       -11.0228      2622.7797      2637.9797
     2639.8716       100.3520         3.6046       123.6543       0.319152         3.9336         2.3483         4.2364         6.4124       -10.5338      2622.9319      2638.1319
     2640.0240        98.1430        -0.0903       125.9921       0.249560         4.7822         2.2796         4.2300         6.1610       -10.7681      2623.0841      2638.2841
     2640.1764        98.4970         0.3892       122.8644       0.249992         4.0569         2.3028         4.2975         6.0191       -10.5418      2623.2364      2638.4364
     2640.3288        95.8960        -2.9067       129.3743       0.212304         2.9191         2.2008         4.5043         5.5805       -11.0608      2623.3886      2638.5886
     2640.4812        95.5030        -0.6650       129.3407       0.291360         2.9973         2.1812         4.9187         4.9848       -11.7951      2623.5408      2638.7408
     2640.6336        93.7640        -3.2060       128.6208       0.223552         3.0327         2.1671         5.8386         4.8332       -14.3058      2623.6930      2638.8930
     2640.7860        94.1220        -1.0244       134.0472       0.264664         3.0042         2.2077         6.7467         5.3201       -16.3308      2623.8452      2639.0452
     2640.9384        95.8610         0.2895       133.2468       0.269960         3.7262         2.2645         7.2143         8.0242       -18.3518      2623.9974      2639.1974
     2641.0908        98.4790         0.2735       135.9829       0.256112         3.2787         2.2868         7.3241        12.6965       -18.6438      2624.1497      2639.3497
     2641.2432       100.6080         3.2890       120.9524       0.345280         3.4674         2.2890         8.0154        13.5633       -17.3961      2624.3019      2639.5019
     2641.3956        98.3930         1.3029       117.3134       0.296400         3.3599         2.2711         8.5587        12.8508       -16.4148      2624.4541      2639.6541
     2641.5480        97.5070        -2.2184       116.5479       0.229536         3.3421         2.2065         8.0710        11.7479       -15.4358      2624.6063      2639.8063
     2641.7004        96.6320         4.5452       125.2557       0.353000         3.4273         2.3389         7.2526         9.9316       -14.9211      2624.7585      2639.9585
     2641.8528        95.3850        -0.3468       127.8596       0.313328         3.6681         2.1604         6.6161         9.9150       -14.4031      2624.9107      2640.1107
     2642.0052        97.3590         6.9872       127.2560       0.391368         5.2641         2.3971         6.0218        10.0400       -13.1798      2625.0630      2640.2630
     2642.1576        95.7630         2.7480       125.6370       0.340416         4.4556         2.2700         5.8136         9.9993       -12.6909      2625.2152      2640.4152
     2642.3100        95.9980         1.5692       124.3503       0.303296         3.9510         2.2730         5.7674         9.8423       -10.9679      2625.3674      2640.5674
     2642.4624        96.9920         5.6735       127.8517       0.281176         4.2476         2.5150         5.3980         9.9888        -7.9988      2625.5196      2640.7196
     2642.6148        94.8920         4.6089       118.4133       0.308776         4.0605         2.4158         5.0091         8.9434        -6.5059      2625.6718      2640.8718
     2642.7672        93.7590         2.8475       113.8165       0.280232         3.6572         2.3753         4.6995         6.8597        -5.7361      2625.8240      2641.0240
     2642.9196        95.3620         1.6099       114.7998       0.270080         2.8505         2.3304         4.4401         4.7717        -5.0039      2625.9763      2641.1763
     2643.0720        90.0430         2.4201       119.5091       0.295792         4.0493         2.3280         4.2088         4.5050        -6.7528      2626.1285      2641.3285
     2643.2244        91.2400         2.5589       119.1194       0.255328         4.2911         2.4024         4.1604         4.8938       -10.5068      2626.2807      2641.4807
     2643.3768        91.4980         3.3205       115.6420       0.295672         3.2097         2.3732         4.2007         5.0359       -14.5288      2626.4329      2641.6329
     2643.5292        84.3080         1.5940       117.0603       0.249376         2.9143         2.3641         4.1464         5.9377       -16.0698      2626.5851      2641.7851
     2643.6816        90.3260         0.8658       119.8754       0.243048         3.7532         2.3382         4.2154         6.5600       -16.3508      2626.7373      2641.9373
     2643.8340        90.7470         2.1165       120.4714       0.259864         3.7461         2.3727         4.2706         7.0660       -16.1258      2626.8896      2642.0896
     2643.9864        92.1140         2.0010       121.2726       0.281824         3.8432         2.3303         4.2710         6.9698       -16.1528      2627.0418      2642.2418
     2644.1388        90.5130         6.7550       121.8038       0.360368         3.5355         2.4371         4.2779         6.4224       -14.9418      2627.1940      2642.3940
     2644.2912        90.1280         1.5754       121.0035       0.316360         4.1004         2.2515         4.2582         6.0877       -13.7198      2627.3462      2642.5462
     2644.4436        90.1250         2.0426       121.3690       0.293184         3.5167         2.3135         4.3155         6.1019       -11.9641      2627.4984      2642.6984
     2644.5960        89.3810         6.3652       120.3850       0.401128         4.3602         2.3497         4.3388         6.2260       -10.4908      2627.6506      2642.8506
     2644.7484        87.6390         7.7160       119.7957       0.436720         4.4176         2.3579         4.3598         6.2359        -9.5187      2627.8029      2643.0029
