~Version Information Block
VERS .                 2.00:  CWLS LOG ASCII STANDARD - VERSION 2.00
WRAP .                   NO:  One line per depth step
~Well Information Block
#MNEM.UNIT        Data Type   Information
#---------- ----------------  -----------
STRT .M              0.0000:  START DEPTH
STOP .M           2699.9172:  STOP DEPTH
STEP .M              0.1524:  STEP
NULL .              -999.25:  NULL VALUE
COMP .                     :  COMPANY
WELL .              GABO-12:  WELL
FLD  .                     :  FIELD
LOC  .                     :  LOCATION
CTRY .                     :  COUNTRY
STAT .                     :  STATE
CNTY .                     :  COUNTY
API  .                     :  API NUMBER
UWI  .                     :  UNIQUE WELL ID
SRVC .                     :  SERVICE COMPANY
DATE .                     :  LOG DATE
~Curve Information Block
#MNEM.UNIT         API CODE   Curve Description
#---------- ----------------  -----------------
DEPTH.M                    :  Reference Depth
DT_COMP.US/F              0:  Comprerssional Sonic
ECART_COMP.                :  Neutron Density Seperation 
GR_COMP.GAPI              0:  Gamma Ray
NPHI_COMP.V/V             0:  Neutron
PEF_COMP.B/E              0:  Photo Electric Factor
RHOB_COMP.G/C3            0:  Bulk Density
RDeep_COMP.OHMM           0:  Deep Resistivity
RSHal_COMP.OHMM           0:  Shallow Resistivity
SP_COMP.MV                0:  Spontaneous
TVDSS_COMP.M               :  Reference TVD sub-sea log.
TVD_COMP.M                 :  Reference TVD log.
~Parameter Information Block
#MNEM.UNIT            Value   Description
#---------- ----------------  -----------
SET  .                  LCS:  
DFD  .LB/G            9.596:  Drilling fluid density
LITHSCALE.            LIMESTONE:  Neutron lithology scale
MUDBASE.                WATER:  Type of mud base
MUDTYPE.               NORMAL:  Type of mud
OPT_BSCO.LOGICAL                0:  Borehole salinity corrn option
OPT_CACO.LOGICAL                1:  Remove acquisition caliper corr?
OPT_FSCO.                   NO:  Formation salinity corrn option
OPT_HSCO.LOGICAL                1:  (Re)Apply hole size corrn option
OPT_MCCO.LOGICAL                1:  Mudcake correction option
OPT_MWCO.LOGICAL                1:  Mud weight correction option
OPT_PTCO_P.LOGICAL                1:  Pressure correction option
OPT_PTCO_T.LOGICAL                1:  Temperature correction option
OPT_SOCO.LOGICAL                1:  Standoff correction option
POST76.LOGICAL                1:  NPHI log is post Jan 1976
SALM .PPM             50000:  Salinity of mud
SALMF.PPM             50000:  Salinity of mud filtrate
SALW .PPM             50000:  Salinity of formation water
SOCN .INS               0.5:  Standoff for neutron tool
~Other Information Block
COMMENT:
$$MUX      Data from LAS tape
$$MUX      fevsbd 08/10/97 ng95603  ASCII:      OB050.fod
$$MUX
$$MUX
#        DEPTH        DT_COMP     ECART_COMP        GR_COMP      NPHI_COMP       PEF_COMP      RHOB_COMP       RDeep_COMP    RShal_COMP        SP_COMP     TVDSS_COMP       TVD_COMP 
~A
# ...
     2253.9950       106.8720         0.3252        71.8410       0.335752         2.3307         2.1567         3.5492         8.8943       -27.8539      2237.7317      2252.9317
     2254.1474       106.9990        -0.8702        67.9242       0.309216         2.1901         2.1411         3.6413         9.5090       -27.7409      2237.8838      2253.0838
     2254.2998       107.2480         0.0657        66.6143       0.339752         1.9083         2.1370         3.7432         9.7630       -27.7529      2238.0359      2253.2359
     2254.4522       106.7540         1.2307        58.2384       0.356864         1.9407         2.1668         3.8511        10.6132       -27.0219      2238.1880      2253.3880
     2254.6046       105.2620         0.1422        52.2239       0.325256         2.5808         2.1650         3.9324        11.4553       -26.9049      2238.3401      2253.5401
     2254.7570       102.1500        -1.7647        43.1706       0.270440         2.1366         2.1610         4.0530        12.3816       -26.7929      2238.4922      2253.6922
     2254.9094       100.5130        -1.5948        39.4117       0.245200         3.0516         2.2116         4.1562        13.5139       -27.0529      2238.6442      2253.8442
     2255.0618        99.0120        -0.3434        38.6370       0.271784         1.9936         2.2299         4.2661        14.1430       -27.0371      2238.7963      2253.9963
     2255.2142        97.2640        -0.2407        39.7976       0.270016         1.9542         2.2379         4.3612        14.3950       -26.8336      2238.9484      2254.1484
     2255.3666        95.5140        -1.3709        37.1197       0.237264         2.2655         2.2360         4.4463        14.2621       -26.7516      2239.1005      2254.3005
     2255.5190        96.3680        -1.3006        35.0485       0.248904         2.0795         2.2201         4.4520        14.2183       -26.2679      2239.2526      2254.4526
     2255.6714        96.7470        -1.6703        34.2384       0.227176         2.2099         2.2379         4.3409        13.6486       -26.7421      2239.4047      2254.6047
     2255.8238        97.4940        -0.0928        44.9268       0.269656         1.9283         2.2459         4.2815        13.8732       -27.0069      2239.5568      2254.7568
     2255.9762        98.9880         0.3565        48.3670       0.281904         1.8615         2.2480         4.2691        13.8631       -27.6111      2239.7089      2254.9089
     2256.1286        99.7440        -1.2537        58.2069       0.262160         2.0554         2.2004         4.2710        12.6240       -27.8769      2239.8610      2255.0610
     2256.2810       101.4860        -0.4466        61.1102       0.275888         2.3159         2.2179         4.2125        11.4137       -28.0159      2240.0131      2255.2131
     2256.4334       102.4920         0.4991        69.5352       0.328576         2.0333         2.1773         4.0047        10.8098       -27.8126      2240.1652      2255.3652
     2256.5858       102.0040         0.3810        69.6030       0.329992         2.1996         2.1691         3.8363        11.1730       -27.4519      2240.3173      2255.5173
     2256.7382       101.2560        -1.2866        65.0755       0.282384         2.2030         2.1650         3.7705        11.9478       -26.9351      2240.4694      2255.6694
     2256.8906       100.5060        -3.2708        66.5300       0.226448         2.3389         2.1590         3.6867        11.9540       -26.3239      2240.6215      2255.8215
     2257.0430       101.1200        -0.1057        75.5077       0.293456         2.2954         2.2056         3.6364        10.3559       -25.8051      2240.7736      2255.9736
     2257.1954       102.3650         0.3895        89.0643       0.306896         2.2871         2.2080         3.5894         8.9016       -25.2871      2240.9257      2256.1257
     2257.3478       102.3750         1.0282       112.5832       0.318904         1.9577         2.2199         3.5315         8.5319       -25.2026      2241.0778      2256.2778
     2257.5002       103.7390         3.8175       119.3986       0.395384         2.3875         2.2319         3.4675         8.0657       -24.2229      2241.2297      2256.4297
     2257.6526       103.6260         2.6562       126.3137       0.377152         2.3553         2.2042         3.4829         8.0610       -22.8956      2241.3820      2256.5820
     2257.8050       104.3690         1.7671       117.6681       0.336328         2.6149         2.2278         3.4612         7.7336       -21.2551      2241.5341      2256.7341
     2257.9574       102.0190         0.3712       129.1290       0.306240         2.8164         2.2082         3.4908         7.6348       -19.5189      2241.6862      2256.8862
     2258.1098       101.7520        -1.1677       147.0899       0.288144         2.4946         2.1614         3.5198         7.4128       -18.5566      2241.8383      2257.0383
     2258.2622       101.2540         1.4587       161.7371       0.368352         2.4980         2.1590         3.3603         5.6304       -17.6939      2241.9904      2257.1904
     2258.4146       100.0100         2.8291       154.0847       0.339240         2.7321         2.2761         3.4701         5.6180       -17.2039      2242.1425      2257.3425
     2258.5670       101.2400         4.2817       144.6952       0.334040         3.3838         2.3574         3.5781         5.7073       -16.4381      2242.2946      2257.4946
     2258.7194       102.1180         3.5526       137.4290       0.314160         3.6350         2.3540         3.6574         5.9193       -16.1036      2242.4467      2257.6467
     2258.8718       102.0010         3.2821       134.3801       0.329872         2.9843         2.3143         3.7116         6.0777       -15.8351      2242.5988      2257.7988
     2259.0242       101.1320         3.9083       126.7384       0.369680         3.0931         2.2793         3.7388         6.2685       -15.8776      2242.7509      2257.9509
     2259.1766        99.3890         3.0800       124.0908       0.340240         2.7428         2.2869         3.7688         6.4595       -15.9832      2242.9030      2258.1030
     2259.3290        99.1270         3.1858       127.8813       0.340992         2.7985         2.2910         3.8196         6.4898       -15.6259      2243.0551      2258.2551
     2259.4814        97.3890         3.7422       126.9825       0.346952         2.9071         2.3089         3.9390         6.3729       -15.5426      2243.2072      2258.4072
     2259.6338        98.3670         4.1831       117.8248       0.344024         3.0132         2.3358         4.0223         6.3016       -14.8109      2243.3593      2258.5593
     2259.7862        98.9950         2.9963       114.3871       0.290432         3.6122         2.3658         4.0260         6.1919       -14.1046      2243.5114      2258.7114
     2259.9386        98.8760         2.6295       121.1383       0.295952         4.0902         2.3382         3.8514         6.2981       -12.4999      2243.6635      2258.8635
     2260.0910        98.9990         5.5894       137.7951       0.393216         3.3282         2.3241         3.5226         6.7523       -10.6409      2243.8156      2259.0156
     2260.2434        97.8840         3.4045       147.7934       0.308688         3.1444         2.3557         3.3474         7.0070        -8.6549      2243.9677      2259.1677
     2260.3958        99.2390         2.8841       164.8868       0.294112         3.0845         2.3540         3.3222         6.4069        -6.0786      2244.1198      2259.3198
     2260.5482        98.6300         3.1776       177.7821       0.308880         3.2665         2.3441         3.1811         5.0846        -2.9401      2244.2719      2259.4719
     2260.7006       102.8410         5.0582       187.8229       0.333800         3.1400         2.3966         3.0481         3.9124         0.1721      2244.4240      2259.6240
