~Version Information Block
VERS .                 2.00:  CWLS LOG ASCII STANDARD - VERSION 2.00
WRAP .                   NO:  One line per depth step
~Well Information Block
#MNEM.UNIT        Data Type   Information
#---------- ----------------  -----------
STRT .M              0.0000:  START DEPTH
STOP .M           2699.9172:  STOP DEPTH
STEP .M              0.1524:  STEP
NULL .              -999.25:  NULL VALUE
COMP .                     :  COMPANY
WELL .              GABO-12:  WELL
FLD  .                     :  FIELD
LOC  .                     :  LOCATION
CTRY .                     :  COUNTRY
STAT .                     :  STATE
CNTY .                     :  COUNTY
API  .                     :  API NUMBER
UWI  .                     :  UNIQUE WELL ID
SRVC .                     :  SERVICE COMPANY
DATE .                     :  LOG DATE
~Curve Information Block
#MNEM.UNIT         API CODE   Curve Description
#---------- ----------------  -----------------
DEPTH.M                    :  Reference Depth
DT_COMP.US/F              0:  Comprerssional Sonic
ECART_COMP.                :  Neutron Density Seperation 
GR_COMP.GAPI              0:  Gamma Ray
NPHI_COMP.V/V             0:  Neutron
PEF_COMP.B/E              0:  Photo Electric Factor
RHOB_COMP.G/C3            0:  Bulk Density
RDeep_COMP.OHMM           0:  Deep Resistivity
RSHal_COMP.OHMM           0:  Shallow Resistivity
SP_COMP.MV                0:  Spontaneous
TVDSS_COMP.M               :  Reference TVD sub-sea log.
TVD_COMP.M                 :  Reference TVD log.
~Parameter Information Block
#MNEM.UNIT            Value   Description
#---------- ----------------  -----------
SET  .                  LCS:  
DFD  .LB/G            9.596:  Drilling fluid density
LITHSCALE.            LIMESTONE:  Neutron lithology scale
MUDBASE.                WATER:  Type of mud base
MUDTYPE.               NORMAL:  Type of mud
OPT_BSCO.LOGICAL                0:  Borehole salinity corrn option
OPT_CACO.LOGICAL                1:  Remove acquisition caliper corr?
OPT_FSCO.                   NO:  Formation salinity corrn option
OPT_HSCO.LOGICAL                1:  (Re)Apply hole size corrn option
OPT_MCCO.LOGICAL                1:  Mudcake correction option
OPT_MWCO.LOGICAL                1:  Mud weight correction option
OPT_PTCO_P.LOGICAL                1:  Pressure correction option
OPT_PTCO_T.LOGICAL                1:  Temperature correction option
OPT_SOCO.LOGICAL                1:  Standoff correction option
POST76.LOGICAL                1:  NPHI log is post Jan 1976
SALM .PPM             50000:  Salinity of mud
SALMF.PPM             50000:  Salinity of mud filtrate
SALW .PPM             50000:  Salinity of formation water
SOCN .INS               0.5:  Standoff for neutron tool
~Other Information Block
COMMENT:
$$MUX      Data from LAS tape
$$MUX      fevsbd 08/10/97 ng95603  ASCII:      OB050.fod
$$MUX
$$MUX
#        DEPTH        DT_COMP     ECART_COMP        GR_COMP      NPHI_COMP       PEF_COMP      RHOB_COMP       RDeep_COMP    RShal_COMP        SP_COMP     TVDSS_COMP       TVD_COMP 
~A
     2000.2491        96.3750      -999.2500        48.3170       0.306000         2.4730         2.2400         6.1830         5.5490       -11.0080      1984.3797      1999.5797
     2000.4015        96.3750      -999.2500        48.3170       0.306000         2.4730         2.2400         6.1830         5.5490       -11.0080      1984.5320      1999.7320
     2000.5539        96.6230      -999.2500        49.8238       0.300048         2.3986         2.2182         6.1999         5.2613       -11.0526      1984.6842      1999.8842
     2000.7063        97.2450      -999.2500        41.4675       0.299008         2.4585         2.3103         6.2556         5.1429       -10.8179      1984.8365      2000.0365
     2000.8587        97.1260      -999.2500        40.0925       0.282136         2.5036         2.1781         6.1022         6.2679       -10.6741      1984.9887      2000.1887
     2001.0111        95.6370      -999.2500        46.2265       0.310768         2.4286         2.2524         6.1000         7.1906       -10.4379      1985.1410      2000.3410
     2001.1635        95.2530      -999.2500        53.1238       0.270328         2.6294         2.2649         6.1962         8.0362       -10.2009      1985.2932      2000.4932
     2001.3159        94.5060      -999.2500        49.0890       0.299760         2.5090         2.1718         6.3289         8.8902       -10.5839      1985.4454      2000.6454
     2001.4683        97.7240      -999.2500        44.2607       0.235520         2.3780         2.2236         6.2616         9.3454       -10.9719      1985.5977      2000.7977
     2001.6207        99.1140      -999.2500        40.7837       0.243928         2.3710         2.3252         6.3185         9.6664       -11.7319      1985.7499      2000.9499
     2001.7731        98.3810      -999.2500        40.6747       0.179520         2.6795         2.1841         6.3577        10.1045       -12.2776      1985.9022      2001.1022
     2001.9255        98.2510      -999.2500        39.1374       0.244472         2.0808         2.2316         6.3838        10.3570       -12.3881      1986.0544      2001.2544
     2002.0779        97.7540      -999.2500        44.7358       0.235080         1.9867         2.2380         6.3612        10.4205       -12.4019      1986.2067      2001.4067
     2002.2303        97.1300      -999.2500        46.2025       0.236984         2.0465         2.2440         6.2916        10.9230       -12.3841      1986.3589      2001.5589
     2002.3827        97.9930      -999.2500        42.7936       0.242952         2.1849         2.2380         6.0906        11.4984       -12.0249      1986.5112      2001.7112
     2002.5351        98.9920      -999.2500        33.6396       0.259864         2.2356         2.2201         5.8975        11.6925       -11.1669      1986.6634      2001.8634
     2002.6875        99.2480      -999.2500        35.5639       0.215360         2.2191         2.2438         5.7958        11.5164       -10.6769      1986.8157      2002.0157
     2002.8399        99.9940      -999.2500        39.6343       0.242776         2.3718         2.2519         5.6650        10.8583        -9.9429      1986.9679      2002.1679
     2002.9923       105.9520      -999.2500        49.4908       0.485048         2.2609         2.2064         5.5569         9.0545        -9.2059      1987.1202      2002.3202
     2003.1447       117.7800      -999.2500        55.2095       0.590168         2.3275         1.9828         5.4717         7.1463        -7.7556      1987.2724      2002.4724
     2003.2971       128.1670      -999.2500        66.6273       0.596952         2.2179         1.9383         5.4750         6.4922        -6.1449      1987.4247      2002.6247
     2003.4495       137.4260      -999.2500        68.6227       0.664456         1.8450         1.6682         5.4958         6.9850        -5.1529      1987.5769      2002.7769
     2003.6019       138.8640      -999.2500        69.6677       0.592584         1.7408         1.5787         5.5178         6.8194        -4.6619      1987.7291      2002.9291
     2003.7543       132.0550      -999.2500        68.1820       0.526528         1.3779         1.6841         5.5765         6.2426        -5.0429      1987.8814      2003.0814
     2003.9067       124.4360      -999.2500        73.5804       0.339504         1.2113         1.9112         5.4371         5.8630        -5.0906      1988.0336      2003.2336
     2004.0591       114.7030      -999.2500        71.3404       0.255664         1.8766         2.2473         5.3963         6.0872        -5.7239      1988.1859      2003.3859
     2004.2115       109.0450      -999.2500        58.5996       0.213336         1.8215         2.1657         5.8622         8.0363        -6.5166      1988.3381      2003.5381
     2004.3639       102.3040      -999.2500        40.9842       0.229864         1.5978         2.1948         6.1725         9.6729        -7.0011      1988.4904      2003.6904
     2004.5163       101.3820      -999.2500        31.4626       0.258768         1.6486         2.2079         6.0768         7.8796        -7.7926      1988.6426      2003.8426
     2004.6687       102.4910      -999.2500        32.2818       0.271896         1.6857         2.1515         6.2030         7.6478        -8.3396      1988.7949      2003.9949
     2004.8211       101.6320      -999.2500        33.1005       0.200576         1.7048         2.1143         6.3945         7.0478        -8.8212      1988.9471      2004.1471
     2004.9735       101.9970      -999.2500        34.5325       0.361696         1.8528         2.1428         6.4069         6.7166        -9.2109      1989.0994      2004.2994
     2005.1259        99.7680      -999.2500        33.8307       0.328280         2.0534         2.1648         6.4060         6.3728        -9.4749      1989.2516      2004.4516
     2005.2783       101.2380      -999.2500        31.0127       0.290304         2.2732         2.1571         6.3713         6.0258        -9.4899      1989.4039      2004.6039
     2005.4307       100.6300      -999.2500        32.8778       0.299920         1.9377         2.2016         6.3184         5.8871        -9.5029      1989.5561      2004.7561
     2005.5831       102.1130      -999.2500        30.0807       0.231552         1.7287         2.1851         6.3071         6.1072        -9.2371      1989.7083      2004.9083
     2005.7355       105.3490      -999.2500        30.0233       0.276632         1.9839         2.1691         6.2812         6.0763        -8.5346      1989.8606      2005.0606
     2005.8879       105.4990      -999.2500        33.4980       0.225416         2.0792         2.1958         6.3008         5.8151        -8.2631      1990.0128      2005.2128
     2006.0403       104.2600      -999.2500        43.2913       0.290472         1.9292         2.1454         6.3694         5.2991        -7.8086      1990.1651      2005.3651
     2006.1927       104.4980      -999.2500        62.7081       0.340600         2.0173         2.1162         6.4355         4.4885        -7.6939      1990.3173      2005.5173
     2006.3451       102.0200      -999.2500        74.8216       0.332072         2.3880         2.1606         6.5064         4.2330        -7.3031      1990.4696      2005.6696
     2006.4975       100.0160      -999.2500        85.5880       0.380608         2.8285         2.2215         6.6102         4.1963        -6.8476      1990.6218      2005.8218
     2006.6499       101.8600      -999.2500        88.7651       0.405800         2.7467         2.1367         6.7013         4.4242        -6.7339      1990.7741      2005.9741
     2006.8023       101.9990      -999.2500        90.0141       0.284976         2.6587         2.2054         6.6534         4.5381        -6.6219      1990.9263      2006.1263
     2006.9547       103.2400      -999.2500        87.6700       0.390144         2.5052         2.1207         6.2145         7.0299        -7.0059      1991.0786      2006.2786
