~Version Information Block
VERS .                 2.00:  CWLS LOG ASCII STANDARD - VERSION 2.00
WRAP .                   NO:  One line per depth step
~Well Information Block
#MNEM.UNIT        Data Type   Information
#---------- ----------------  -----------
STRT .M              0.0000:  START DEPTH
STOP .M           2699.9172:  STOP DEPTH
STEP .M              0.1524:  STEP
NULL .              -999.25:  NULL VALUE
COMP .                     :  COMPANY
WELL .              GABO-12:  WELL
FLD  .                     :  FIELD
LOC  .                     :  LOCATION
CTRY .                     :  COUNTRY
STAT .                     :  STATE
CNTY .                     :  COUNTY
API  .                     :  API NUMBER
UWI  .                     :  UNIQUE WELL ID
SRVC .                     :  SERVICE COMPANY
DATE .                     :  LOG DATE
~Curve Information Block
#MNEM.UNIT         API CODE   Curve Description
#---------- ----------------  -----------------
DEPTH.M                    :  Reference Depth
DT_COMP.US/F              0:  Comprerssional Sonic
ECART_COMP.                :  Neutron Density Seperation 
GR_COMP.GAPI              0:  Gamma Ray
NPHI_COMP.V/V             0:  Neutron
PEF_COMP.B/E              0:  Photo Electric Factor
RHOB_COMP.G/C3            0:  Bulk Density
RDeep_COMP.OHMM           0:  Deep Resistivity
RSHal_COMP.OHMM           0:  Shallow Resistivity
SP_COMP.MV                0:  Spontaneous
TVDSS_COMP.M               :  Reference TVD sub-sea log.
TVD_COMP.M                 :  Reference TVD log.
~Parameter Information Block
#MNEM.UNIT            Value   Description
#---------- ----------------  -----------
SET  .                  LCS:  
DFD  .LB/G            9.596:  Drilling fluid density
LITHSCALE.            LIMESTONE:  Neutron lithology scale
MUDBASE.                WATER:  Type of mud base
MUDTYPE.               NORMAL:  Type of mud
OPT_BSCO.LOGICAL                0:  Borehole salinity corrn option
OPT_CACO.LOGICAL                1:  Remove acquisition caliper corr?
OPT_FSCO.                   NO:  Formation salinity corrn option
OPT_HSCO.LOGICAL                1:  (Re)Apply hole size corrn option
OPT_MCCO.LOGICAL                1:  Mudcake correction option
OPT_MWCO.LOGICAL                1:  Mud weight correction option
OPT_PTCO_P.LOGICAL                1:  Pressure correction option
OPT_PTCO_T.LOGICAL                1:  Temperature correction option
OPT_SOCO.LOGICAL                1:  Standoff correction option
POST76.LOGICAL                1:  NPHI log is post Jan 1976
SALM .PPM             50000:  Salinity of mud
SALMF.PPM             50000:  Salinity of mud filtrate
SALW .PPM             50000:  Salinity of formation water
SOCN .INS               0.5:  Standoff for neutron tool
~Other Information Block
COMMENT:
$$MUX      Data from LAS tape
$$MUX      fevsbd 08/10/97 ng95603  ASCII:      OB050.fod
$$MUX
$$MUX
#        DEPTH        DT_COMP     ECART_COMP        GR_COMP      NPHI_COMP       PEF_COMP      RHOB_COMP       RDeep_COMP    RShal_COMP        SP_COMP     TVDSS_COMP       TVD_COMP 
~A
# ...
     2466.5929        93.3860       -10.2191        23.3583       0.046000         2.0446         2.1124       303.8242        19.0004       -26.1719      2449.9240      2465.1240
     2466.7453        92.7550        -9.9225        26.5832       0.053936         1.9011         2.1140       245.6721        19.2589       -26.0629      2450.0761      2465.2761
     2466.8977        91.1380        -9.9465        36.6292       0.063920         2.0845         2.0961       220.6512        21.2321       -26.1681      2450.2282      2465.4282
     2467.0501        90.6290        -9.2192        38.3647       0.062016         1.9610         2.1357       211.6877        24.2260       -26.3059      2450.3803      2465.5803
     2467.2025        91.7410        -9.0017        37.7798       0.051088         2.1723         2.1648       229.3777        28.4799       -26.8159      2450.5324      2465.7324
     2467.3549        93.7340        -9.4166        33.9012       0.036120         2.1373         2.1690       264.0495        27.7174       -26.5859      2450.6845      2465.8845
     2467.5073        95.4860       -10.9278        34.0634       0.033024         2.4277         2.0986       283.8664        22.5447       -26.4412      2450.8366      2466.0366
     2467.6597       100.4600       -10.1927        34.0829       0.072680         2.0888         2.0692       254.8999        18.2959       -26.4539      2450.9887      2466.1887
     2467.8121       104.3440        -9.3732        34.2407       0.073000         2.0900         2.1097       180.7621        13.4587       -26.6216      2451.1409      2466.3409
     2467.9645       105.1190        -6.1790        36.2439       0.112680         2.9679         2.2032       121.2989         9.0245       -26.8839      2451.2930      2466.4930
     2468.1169       113.1850        -7.4033        34.9317       0.113000         2.0911         2.1415        95.1501         6.6776       -26.7441      2451.4451      2466.6451
     2468.2693       109.9020        -4.4638        38.1758       0.241960         2.2388         2.0735        93.5473         6.2453       -26.9106      2451.5972      2466.7972
     2468.4217       104.1710        -6.7084        36.9154       0.258872         2.2400         1.9331       107.4408         7.6854       -26.6769      2451.7493      2466.9493
     2468.5741       103.1330        -9.5638        36.7116       0.157816         2.6507         1.9588       164.4599        12.0291       -27.0291      2451.9014      2467.1014
     2468.7265        93.9490        -9.6859        33.4523       0.088552         3.9753         2.0681       220.2249        19.0020       -27.4169      2452.0535      2467.2535
     2468.8789        90.1550        -8.1590        31.4708       0.099904         2.6607         2.1255       231.8081        22.5211       -28.0529      2452.2056      2467.4056
     2469.0313        89.7530        -7.6970        32.8636       0.106944         2.3980         2.1369       242.8496        20.3815       -28.6601      2452.3577      2467.5577
     2469.1837        89.9980        -7.2635        32.3066       0.069304         2.5984         2.2213       250.3680        18.1856       -29.3286      2452.5098      2467.7098
     2469.3361        90.4960        -5.0974        27.3589       0.080904         2.4353         2.3103       249.3646        16.7385       -29.9669      2452.6619      2467.8619
     2469.4885        92.4840        -7.2822        27.3547       0.089928         2.6889         2.1860       224.6195        16.4978       -30.6059      2452.8140      2468.0140
     2469.6409        91.0120        -7.3860        27.8827       0.096944         2.0968         2.1691       221.7277        18.5861       -31.1199      2452.9661      2468.1661
     2469.7933        91.6200        -7.9488        31.6030       0.086088         2.3886         2.1591       232.5217        20.9689       -30.6409      2453.1183      2468.3183
     2469.9457        91.2530        -9.7918        33.3591       0.061200         2.0319         2.1084       264.9094        21.8510       -30.4019      2453.2704      2468.4704
     2470.0981        92.9860        -9.1387        30.1678       0.067944         2.2770         2.1298       354.8962        21.4096       -30.0409      2453.4225      2468.6225
     2470.2505        94.8600        -8.8490        30.1767       0.069984         2.2681         2.1409       384.0139        20.6967       -29.7721      2453.5746      2468.7746
     2470.4029        94.7510        -8.4896        29.6671       0.070000         2.1728         2.1589       372.9531        21.5005       -29.7829      2453.7267      2468.9267
     2470.5553        95.1220        -9.6109        32.3037       0.063056         1.9379         2.1144       392.8735        22.7162       -29.4546      2453.8788      2469.0788
     2470.7077        95.0010        -9.5737        30.4521       0.067960         2.0154         2.1080       389.0352        22.3877       -28.5661      2454.0309      2469.2309
     2470.8601        96.7360        -9.3286        26.0414       0.067008         2.0795         2.1219       348.9620        21.0260       -28.0759      2454.1830      2469.3830
     2471.0125        95.3860        -9.5978        27.9781       0.066008         1.9431         2.1101       446.0055        19.9645       -27.5889      2454.3351      2469.5351
     2471.1649        96.2430        -9.4413        27.9057       0.066000         2.0541         2.1179       512.7440        18.5930       -27.6296      2454.4873      2469.6873
     2471.3173        96.4980        -8.9969        27.2007       0.067984         2.0104         2.1368       526.1213        17.8628       -27.2392      2454.6394      2469.8394
     2471.4697        96.7480        -8.7883        24.5890       0.072960         2.2362         2.1390       517.4141        17.3074       -26.7846      2454.7915      2469.9915
     2471.6221        95.5100        -9.6133        22.0324       0.063080         2.0465         2.1142       503.5820        16.2971       -26.2979      2454.9436      2470.1436
     2471.7745        97.2360        -9.3819        25.8858       0.063000         2.1164         2.1259       488.9263        15.7236       -25.8109      2455.0957      2470.2957
     2471.9269        97.6220        -9.5123        24.7197       0.053080         2.0436         2.1359       486.8746        15.3569       -25.9746      2455.2478      2470.4478
     2472.0793        99.3610        -9.0570        28.6125       0.067880         2.1422         2.1340       511.7016        15.7627       -26.1129      2455.4000      2470.6000
     2472.2317        99.8710        -9.4038        27.3296       0.067008         2.2591         2.1181       482.4416        16.2422       -26.3749      2455.5521      2470.7521
     2472.3841       100.6190        -9.4067        27.2664       0.072952         2.0041         2.1081       422.2685        16.9533       -26.2351      2455.7042      2470.9042
     2472.5365       101.4930       -10.0217        27.1777       0.070024         2.0833         2.0822       330.9904        16.9461       -26.1229      2455.8563      2471.0563
     2472.6889       102.9880        -9.9341        25.2972       0.062064         1.9511         2.0999       209.6271        17.3726       -25.7321      2456.0084      2471.2084
     2472.8413       104.3640       -10.1053        27.9297       0.084816         2.1544         2.0534       194.1678        18.9473       -25.5256      2456.1605      2471.3605
     2472.9937       103.7550        -9.7628        31.0401       0.098888         2.0380         2.0470       195.2979        20.6454       -24.7929      2456.3127      2471.5127
     2473.1461       101.6420       -10.6859        31.5937       0.071224         1.8902         2.0470       207.2556        20.8316       -24.0242      2456.4648      2471.6648
     2473.2985        98.4010       -11.5398        31.5097       0.055128         1.9307         2.0311       254.7407        20.7854       -23.2879      2456.6169      2471.8169
