~Version Information Block
VERS .                 2.00:  CWLS LOG ASCII STANDARD - VERSION 2.00
WRAP .                   NO:  One line per depth step
~Well Information Block
#MNEM.UNIT        Data Type   Information
#---------- ----------------  -----------
STRT .M              0.0000:  START DEPTH
STOP .M           2699.9172:  STOP DEPTH
STEP .M              0.1524:  STEP
NULL .              -999.25:  NULL VALUE
COMP .                     :  COMPANY
WELL .              GABO-12:  WELL
FLD  .                     :  FIELD
LOC  .                     :  LOCATION
CTRY .                     :  COUNTRY
STAT .                     :  STATE
CNTY .                     :  COUNTY
API  .                     :  API NUMBER
UWI  .                     :  UNIQUE WELL ID
SRVC .                     :  SERVICE COMPANY
DATE .                     :  LOG DATE
~Curve Information Block
#MNEM.UNIT         API CODE   Curve Description
#---------- ----------------  -----------------
DEPTH.M                    :  Reference Depth
DT_COMP.US/F              0:  Comprerssional Sonic
ECART_COMP.                :  Neutron Density Seperation 
GR_COMP.GAPI              0:  Gamma Ray
NPHI_COMP.V/V             0:  Neutron
PEF_COMP.B/E              0:  Photo Electric Factor
RHOB_COMP.G/C3            0:  Bulk Density
RDeep_COMP.OHMM           0:  Deep Resistivity
RSHal_COMP.OHMM           0:  Shallow Resistivity
SP_COMP.MV                0:  Spontaneous
TVDSS_COMP.M               :  Reference TVD sub-sea log.
TVD_COMP.M                 :  Reference TVD log.
~Parameter Information Block
#MNEM.UNIT            Value   Description
#---------- ----------------  -----------
SET  .                  LCS:  
DFD  .LB/G            9.596:  Drilling fluid density
LITHSCALE.            LIMESTONE:  Neutron lithology scale
MUDBASE.                WATER:  Type of mud base
MUDTYPE.               NORMAL:  Type of mud
OPT_BSCO.LOGICAL                0:  Borehole salinity corrn option
OPT_CACO.LOGICAL                1:  Remove acquisition caliper corr?
OPT_FSCO.                   NO:  Formation salinity corrn option
OPT_HSCO.LOGICAL                1:  (Re)Apply hole size corrn option
OPT_MCCO.LOGICAL                1:  Mudcake correction option
OPT_MWCO.LOGICAL                1:  Mud weight correction option
OPT_PTCO_P.LOGICAL                1:  Pressure correction option
OPT_PTCO_T.LOGICAL                1:  Temperature correction option
OPT_SOCO.LOGICAL                1:  Standoff correction option
POST76.LOGICAL                1:  NPHI log is post Jan 1976
SALM .PPM             50000:  Salinity of mud
SALMF.PPM             50000:  Salinity of mud filtrate
SALW .PPM             50000:  Salinity of formation water
SOCN .INS               0.5:  Standoff for neutron tool
~Other Information Block
COMMENT:
$$MUX      Data from LAS tape
$$MUX      fevsbd 08/10/97 ng95603  ASCII:      OB050.fod
$$MUX
$$MUX
#        DEPTH        DT_COMP     ECART_COMP        GR_COMP      NPHI_COMP       PEF_COMP      RHOB_COMP       RDeep_COMP    RShal_COMP        SP_COMP     TVDSS_COMP       TVD_COMP 
~A
# ...
     2130.5510       107.9910         0.9303        86.5344       0.315032         3.0674         2.2215         4.9666         4.6645       -16.2256      2114.5668      2129.7668
     2130.7034       102.9160         4.0218        91.6548       0.459832         3.1166         2.1347         5.0156         4.5390       -16.2001      2114.7191      2129.9191
     2130.8558       104.4870         5.6537        79.7305       0.562184         2.4821         2.0457         5.2729         5.5538       -17.5461      2114.8713      2130.0713
     2131.0082       108.0960        -1.3236        63.6836       0.397336         3.5831         1.9716         5.5141         7.3833       -19.0886      2115.0235      2130.2235
     2131.1606       108.6210         4.4265        49.7126       0.426752         3.7259         2.2101         5.6112         9.1747       -18.8659      2115.1757      2130.3757
     2131.3130       107.0130         5.0156        42.0945       0.434936         2.9790         2.2259         5.7181         9.4955       -18.7529      2115.3280      2130.5280
     2131.4654       108.8600        -0.6675        36.2744       0.380440         1.9721         2.0326         5.7746         8.8453       -18.3929      2115.4802      2130.6802
     2131.6178       107.3870        -2.2212        30.3504       0.341312         1.7468         2.0201         5.7532         7.7399       -18.4039      2115.6324      2130.8324
     2131.7702       103.0350        -5.1697        27.1465       0.251720         1.7043         2.0220         5.6409         7.0128       -18.2929      2115.7846      2130.9846
     2131.9226       102.1320        -2.2372        27.1855       0.316472         1.7913         2.0607         5.4753         6.5904       -17.7772      2115.9369      2131.1369
     2132.0750       101.5050        -5.4274        26.0670       0.209864         1.8446         2.0789         5.3540         5.0058       -16.4536      2116.0891      2131.2891
     2132.2274       100.5080        -4.1703        29.5151       0.201064         1.6734         2.1564         5.2439         3.8631       -14.7199      2116.2413      2131.4413
     2132.3798       102.2360         1.0910        28.4379       0.353768         2.4319         2.1649         5.1081         3.2905       -12.9521      2116.3935      2131.5935
     2132.5322       103.6140         2.7404        30.4953       0.405592         1.9172         2.1610         5.0921         3.2543       -12.6096      2116.5457      2131.7457
     2132.6846       103.5010        -1.0956        28.7810       0.260176         3.2105         2.2116         5.0543         3.1072       -12.7439      2116.6980      2131.8980
     2132.8370       103.7480        -3.0974        28.1817       0.230232         3.4065         2.1614         4.9072         2.8927       -12.6031      2116.8502      2132.0502
     2132.9894       110.5700        -4.5683        29.0242       0.257776         3.0152         2.0420         4.9129         2.7948       -13.2349      2117.0024      2132.2024
     2133.1418       115.2130         0.3072        31.1142       0.289744         3.1747         2.2325         4.8128         2.5311       -13.2529      2117.1546      2132.3546
     2133.2942       115.9940        -2.1069        36.0603       0.300912         3.1800         2.0931         4.7068         2.4883       -13.0179      2117.3068      2132.5068
     2133.4466       118.6040         2.0596        36.8331       0.339688         3.2415         2.2368         4.7774         2.7638       -12.9049      2117.4590      2132.6590
     2133.5990       113.2930         3.8657        34.6625       0.472928         4.4592         2.1051         5.0181         3.4048       -12.7929      2117.6113      2132.8113
     2133.7514       107.1740         0.7850        33.3365       0.378768         4.3212         2.1080         5.2025         4.1361       -13.2086      2117.7635      2132.9635
     2133.9038       105.0170         2.3274        30.0435       0.455376         5.3358         2.0574         5.3042         4.7789       -14.0929      2117.9157      2133.1157
     2134.0562       104.2560         0.9578        29.4158       0.365728         2.6001         2.1383         5.2673         5.9982       -15.1356      2118.0679      2133.2679
     2134.2086       103.0100        -1.4011        23.9312       0.303496         2.1465         2.1241         5.1301         6.3274       -15.9009      2118.2201      2133.4201
     2134.3610       102.1320         4.1418        27.4195       0.468664         2.0498         2.1260         4.9961         6.4570       -16.4159      2118.3723      2133.5723
     2134.5134       100.2650        -0.0856        30.1195       0.328144         2.1472         2.1488         4.9494         6.2854       -16.4329      2118.5245      2133.7245
     2134.6658        99.0100         1.8905        33.7826       0.397432         2.6192         2.1321         4.9946         5.8366       -16.9429      2118.6767      2133.8767
     2134.8182       100.6120         2.1249        34.3050       0.392048         2.7202         2.1528         5.0198         5.5751       -16.3706      2118.8289      2134.0289
     2134.9706       102.1130         1.1214        40.7124       0.358272         2.6397         2.1590         5.1619         5.3101       -15.4801      2118.9811      2134.1811
     2135.1230       100.3890         1.5035        56.5735       0.370896         2.5130         2.1570         5.2731         5.3378       -14.3699      2119.1333      2134.3333
     2135.2754       101.8630        -0.7088        78.0360       0.358104         3.3373         2.0677         5.2988         5.4937       -13.3511      2119.2856      2134.4856
     2135.4278       102.4950        -0.5746        99.6094       0.358992         4.2080         2.0730         5.3169         5.4444       -13.2002      2119.4378      2134.6378
     2135.5802       102.0040        -0.0906       114.0827       0.343128         4.0404         2.1236         5.1930         5.9827       -12.7476      2119.5900      2134.7900
     2135.7326       102.3720         4.7741       123.2689       0.462040         3.8664         2.1686         5.0988         6.3054       -11.7649      2119.7422      2134.9422
     2135.8850        98.2830         6.3675       131.2304       0.497720         2.9524         2.1888         5.1000         6.4945       -10.9019      2119.8944      2135.0944
     2136.0374       100.7300         4.0521       135.7233       0.376976         3.7317         2.2743         5.1536         6.4156       -10.9079      2120.0466      2135.2466
     2136.1898       100.2540         3.7291       144.3586       0.415680         4.9740         2.1937         5.1451         6.2950       -11.3236      2120.1988      2135.3988
     2136.3422       102.8540         3.1579       147.7809       0.367392         4.6705         2.2456         5.0666         6.2196       -11.8369      2120.3510      2135.5510
     2136.4946       105.4790         5.0977       141.9949       0.426520         4.0212         2.2440         5.0442         6.2240       -11.8846      2120.5032      2135.7032
     2136.6470       106.2440         5.4705       122.6843       0.429976         4.9574         2.2569         5.0926         6.1744       -11.9911      2120.6554      2135.8554
     2136.7994       107.7380         6.6439       107.3176       0.424048         3.5931         2.3254         5.1039         6.0321       -12.1289      2120.8076      2136.0076
     2136.9518       107.6260         6.4549       100.3859       0.426976         2.9699         2.3111         5.0286         6.2721       -12.5149      2120.9597      2136.1597
     2137.1042       107.8730         3.8344       103.2822       0.379384         3.0632         2.2594         4.8395         6.4218       -12.4069      2121.1119      2136.3119
     2137.2566       107.5030         3.9787        96.6963       0.410744         3.3765         2.2144         4.7616         6.4339       -12.0469      2121.2641      2136.4641
