~Version Information Block
VERS .                 2.00:  CWLS LOG ASCII STANDARD - VERSION 2.00
WRAP .                   NO:  One line per depth step
~Well Information Block
#MNEM.UNIT        Data Type   Information
#---------- ----------------  -----------
STRT .M              0.0000:  START DEPTH
STOP .M           2699.9172:  STOP DEPTH
STEP .M              0.1524:  STEP
NULL .              -999.25:  NULL VALUE
COMP .                     :  COMPANY
WELL .              GABO-12:  WELL
FLD  .                     :  FIELD
LOC  .                     :  LOCATION
CTRY .                     :  COUNTRY
STAT .                     :  STATE
CNTY .                     :  COUNTY
API  .                     :  API NUMBER
UWI  .                     :  UNIQUE WELL ID
SRVC .                     :  SERVICE COMPANY
DATE .                     :  LOG DATE
~Curve Information Block
#MNEM.UNIT         API CODE   Curve Description
#---------- ----------------  -----------------
DEPTH.M                    :  Reference Depth
DT_COMP.US/F              0:  Comprerssional Sonic
ECART_COMP.                :  Neutron Density Seperation 
GR_COMP.GAPI              0:  Gamma Ray
NPHI_COMP.V/V             0:  Neutron
PEF_COMP.B/E              0:  Photo Electric Factor
RHOB_COMP.G/C3            0:  Bulk Density
RDeep_COMP.OHMM           0:  Deep Resistivity
RSHal_COMP.OHMM           0:  Shallow Resistivity
SP_COMP.MV                0:  Spontaneous
TVDSS_COMP.M               :  Reference TVD sub-sea log.
TVD_COMP.M                 :  Reference TVD log.
~Parameter Information Block
#MNEM.UNIT            Value   Description
#---------- ----------------  -----------
SET  .                  LCS:  
DFD  .LB/G            9.596:  Drilling fluid density
LITHSCALE.            LIMESTONE:  Neutron lithology scale
MUDBASE.                WATER:  Type of mud base
MUDTYPE.               NORMAL:  Type of mud
OPT_BSCO.LOGICAL                0:  Borehole salinity corrn option
OPT_CACO.LOGICAL                1:  Remove acquisition caliper corr?
OPT_FSCO.                   NO:  Formation salinity corrn option
OPT_HSCO.LOGICAL                1:  (Re)Apply hole size corrn option
OPT_MCCO.LOGICAL                1:  Mudcake correction option
OPT_MWCO.LOGICAL                1:  Mud weight correction option
OPT_PTCO_P.LOGICAL                1:  Pressure correction option
OPT_PTCO_T.LOGICAL                1:  Temperature correction option
OPT_SOCO.LOGICAL                1:  Standoff correction option
POST76.LOGICAL                1:  NPHI log is post Jan 1976
SALM .PPM             50000:  Salinity of mud
SALMF.PPM             50000:  Salinity of mud filtrate
SALW .PPM             50000:  Salinity of formation water
SOCN .INS               0.5:  Standoff for neutron tool
~Other Information Block
COMMENT:
$$MUX      Data from LAS tape
$$MUX      fevsbd 08/10/97 ng95603  ASCII:      OB050.fod
$$MUX
$$MUX
#        DEPTH        DT_COMP     ECART_COMP        GR_COMP      NPHI_COMP       PEF_COMP      RHOB_COMP       RDeep_COMP    RShal_COMP        SP_COMP     TVDSS_COMP       TVD_COMP 
~A
# ...
     2295.1429       101.4130         9.8520       117.1387       0.473448         3.4006         2.4035         1.8402         3.0165         7.0619      2278.8049      2294.0049
     2295.2953       104.9710         9.5029       123.9144       0.462096         2.9874         2.4050         1.8202         2.9753         7.5342      2278.9570      2294.1570
     2295.4477       106.3640        11.8213       119.2967       0.515568         3.6060         2.4318         1.8200         3.0167         7.5102      2279.1092      2294.3092
     2295.6001       107.4910         9.5253       118.0190       0.422752         3.0188         2.4717         1.8002         3.0269         7.2640      2279.2613      2294.4613
     2295.7525       107.5000        11.3584       117.4683       0.504336         3.1688         2.4274         1.7831         3.0905         7.2332      2279.4135      2294.6135
     2295.9049       108.2440         9.0653       117.0116       0.440520         3.3287         2.4191         1.7860         3.0503         7.2360      2279.5656      2294.7656
     2296.0573       108.2500         8.3192       117.6826       0.379488         3.0334         2.4835         1.7969         3.0738         7.2072      2279.7177      2294.9177
     2296.2097       107.6300         9.7220       119.0331       0.462328         2.6689         2.4156         1.9051         2.9917         7.2100      2279.8699      2295.0699
     2296.3621       107.1290         8.6818       118.2702       0.430264         3.3078         2.4170         1.9744         3.0277         6.4839      2280.0220      2295.2220
     2296.5145       107.0010         7.4300       124.7487       0.381392         3.3199         2.4358         2.1089         2.9040         5.8292      2280.1742      2295.3742
     2296.6669        87.1540        11.2557       120.0116       0.451432         3.8160         2.5104         2.2439         2.7671         4.5552      2280.3263      2295.5263
     2296.8193        89.4125        10.5526       122.8508       0.475808         2.7992         2.4346         2.3492         3.0408         3.1998      2280.4785      2295.6785
     2296.9717        91.8515         9.1116       107.5178       0.438304         3.3277         2.4251         2.4641         3.5836         1.5482      2280.6306      2295.8306
     2297.1241        93.9443         5.6478       104.4567       0.342768         2.9501         2.4111         3.1515         5.3488        -0.3538      2280.7827      2295.9827
     2297.2765        93.6594         3.0276        96.0744       0.239824         3.3081         2.4517         4.5805         9.5522        -2.1328      2280.9349      2296.1349
     2297.4289        93.3544         2.4578        97.6408       0.175512         3.3437         2.5304         6.0264        13.6601        -3.7411      2281.0870      2296.2870
     2297.5813        93.0494         4.7482        99.9544       0.226584         4.3013         2.5598         7.9139        12.7099        -4.2788      2281.2392      2296.4392
     2297.7337        92.4885         3.8805       103.3141       0.231960         3.5204         2.5074         7.8645        11.6515        -4.6838      2281.3913      2296.5913
     2297.8861        91.8799         4.7331       106.0869       0.272672         3.9614         2.4822         7.7549        11.0190        -4.5600      2281.5435      2296.7435
     2298.0385        91.2699         4.1316       100.2413       0.280936         3.3857         2.4384         7.6617        10.7045        -4.4330      2281.6956      2296.8956
     2298.1909        94.5912         3.7960        97.4432       0.291912         3.7679         2.4033         7.6531        10.0007        -3.7158      2281.8478      2297.0478
     2298.3433       100.9678         3.8462       102.5675       0.295968         3.0895         2.3990         7.4665         7.3751        -2.6069      2281.9999      2297.1999
     2298.4957       107.3688         9.3820       101.6765       0.415040         3.3866         2.4774         6.1427         6.1795        -1.3560      2282.1520      2297.3520
     2298.6481       111.3612        12.3630       110.8053       0.460640         3.3910         2.5504         5.1856         4.9727        -0.2270      2282.3042      2297.5042
     2298.8005       109.2771         6.5537       110.0447       0.431240         5.1379         2.3090         4.6036         4.1664         0.2641      2282.4563      2297.6563
     2298.9529       107.1431        13.4903       110.3356       0.520280         4.1759         2.5074         4.3818         3.3604         0.9842      2282.6085      2297.8085
     2299.1053       105.0130         3.8647       108.2578       0.452552         4.1293         2.1390         4.1856         3.1625         1.4572      2282.7606      2297.9606
     2299.2577       103.7858         5.4466       109.8292       0.426208         2.9684         2.2620         4.1880         3.2285         2.0522      2282.9128      2298.1128
     2299.4101       102.5667         6.5975       114.3973       0.433936         4.0185         2.3066         4.2743         3.4631         2.1989      2283.0649      2298.2649
     2299.5625       101.3477         5.2311       120.5983       0.375472         3.3028         2.3358         4.3097         3.6654         2.0790      2283.2171      2298.4171
     2299.7149       101.4402         8.6325       127.5117       0.437496         3.1998         2.4025         4.2336         3.6938         1.6931      2283.3692      2298.5692
     2299.8673       102.0451         8.2896       128.8516       0.445936         2.9857         2.3713         4.1685         3.6077         1.3200      2283.5213      2298.7213
     2300.0197       102.6551         6.4746       119.5203       0.399376         3.0207         2.3581         4.0648         3.4473         1.3041      2283.6735      2298.8735
     2300.1721       103.2641         6.7642       116.3747       0.424792         2.7542         2.3302         3.9906         3.3696         0.9042      2283.8256      2299.0256
     2300.3245       103.8741         6.7667       115.2092       0.430952         3.0228         2.3201         3.9473         3.3492         0.9962      2283.9778      2299.1778
     2300.4769       104.4841         7.1899       118.9279       0.444888         2.9308         2.3180         3.9520         3.3748         0.8601      2284.1299      2299.3299
     2300.6293       105.0445         4.7001       117.8410       0.354728         3.0034         2.3438         3.8726         3.4157         1.2330      2284.2821      2299.4821
     2300.7817       105.3515         8.3173       119.6444       0.469072         3.2113         2.3341         3.8770         3.3803         1.2082      2284.4342      2299.6342
     2300.9341       105.6566         7.8970       124.3045       0.466032         3.8717         2.3181         3.8572         3.2798         0.8231      2284.5864      2299.7864
     2301.0865       105.9615         7.5098       125.0116       0.452112         3.3284         2.3220         3.8421         3.2165        -0.3248      2284.7385      2299.9385
     2301.2389       103.0713        10.2049       126.6102       0.502592         3.0919         2.3726         3.9868         3.2091        -2.2228      2284.8906      2300.0906
     2301.3913        99.7218         8.7321       125.1707       0.495064         2.9402         2.3115         4.5207         3.6167        -4.2508      2285.0428      2300.2428
     2301.5437        96.3688         5.5059       121.9499       0.411672         3.5729         2.2892         5.1797         4.7172        -6.6200      2285.1949      2300.3949
     2301.6961        98.7307         5.8503       126.6866       0.367352         3.9788         2.3803         6.0470         6.7903        -8.2798      2285.3471      2300.5471
     2301.8485        95.2780         6.6469       127.0087       0.390808         5.3133         2.3810         7.2920         9.8425        -9.9179      2285.4992      2300.6992
