~Version Information Block
VERS .                 2.00:  CWLS LOG ASCII STANDARD - VERSION 2.00
WRAP .                   NO:  One line per depth step
~Well Information Block
#MNEM.UNIT        Data Type   Information
#---------- ----------------  -----------
STRT .M              0.0000:  START DEPTH
STOP .M           2699.9172:  STOP DEPTH
STEP .M              0.1524:  STEP
NULL .              -999.25:  NULL VALUE
COMP .                     :  COMPANY
WELL .              GABO-12:  WELL
FLD  .                     :  FIELD
LOC  .                     :  LOCATION
CTRY .                     :  COUNTRY
STAT .                     :  STATE
CNTY .                     :  COUNTY
API  .                     :  API NUMBER
UWI  .                     :  UNIQUE WELL ID
SRVC .                     :  SERVICE COMPANY
DATE .                     :  LOG DATE
~Curve Information Block
#MNEM.UNIT         API CODE   Curve Description
#---------- ----------------  -----------------
DEPTH.M                    :  Reference Depth
DT_COMP.US/F              0:  Comprerssional Sonic
ECART_COMP.                :  Neutron Density Seperation 
GR_COMP.GAPI              0:  Gamma Ray
NPHI_COMP.V/V             0:  Neutron
PEF_COMP.B/E              0:  Photo Electric Factor
RHOB_COMP.G/C3            0:  Bulk Density
RDeep_COMP.OHMM           0:  Deep Resistivity
RSHal_COMP.OHMM           0:  Shallow Resistivity
SP_COMP.MV                0:  Spontaneous
TVDSS_COMP.M               :  Reference TVD sub-sea log.
TVD_COMP.M                 :  Reference TVD log.
~Parameter Information Block
#MNEM.UNIT            Value   Description
#---------- ----------------  -----------
SET  .                  LCS:  
DFD  .LB/G            9.596:  Drilling fluid density
LITHSCALE.            LIMESTONE:  Neutron lithology scale
MUDBASE.                WATER:  Type of mud base
MUDTYPE.               NORMAL:  Type of mud
OPT_BSCO.LOGICAL                0:  Borehole salinity corrn option
OPT_CACO.LOGICAL                1:  Remove acquisition caliper corr?
OPT_FSCO.                   NO:  Formation salinity corrn option
OPT_HSCO.LOGICAL                1:  (Re)Apply hole size corrn option
OPT_MCCO.LOGICAL                1:  Mudcake correction option
OPT_MWCO.LOGICAL                1:  Mud weight correction option
OPT_PTCO_P.LOGICAL                1:  Pressure correction option
OPT_PTCO_T.LOGICAL                1:  Temperature correction option
OPT_SOCO.LOGICAL                1:  Standoff correction option
POST76.LOGICAL                1:  NPHI log is post Jan 1976
SALM .PPM             50000:  Salinity of mud
SALMF.PPM             50000:  Salinity of mud filtrate
SALW .PPM             50000:  Salinity of formation water
SOCN .INS               0.5:  Standoff for neutron tool
~Other Information Block
COMMENT:
$$MUX      Data from LAS tape
$$MUX      fevsbd 08/10/97 ng95603  ASCII:      OB050.fod
$$MUX
$$MUX
#        DEPTH        DT_COMP     ECART_COMP        GR_COMP      NPHI_COMP       PEF_COMP      RHOB_COMP       RDeep_COMP    RShal_COMP        SP_COMP     TVDSS_COMP       TVD_COMP 
~A
# ...
     2384.2969        97.9900         9.0758       119.5479       0.482840         3.6712         2.3491         3.1437         2.4306         0.0684      2367.8115      2383.0115
     2384.4493        97.5040         6.9966       112.4507       0.456216         3.3615         2.2895         3.2928         1.9776        -1.2960      2367.9636      2383.1636
     2384.6017        94.0280         6.6030       108.7553       0.369696         3.5554         2.4140         3.7890         2.4958        -2.2960      2368.1157      2383.3157
     2384.7541        89.9080         1.7921       107.2162       0.250952         4.7444         2.3714         3.7880         4.0207        -3.4180      2368.2678      2383.4678
     2384.9065        82.5590         5.1460       111.1383       0.205360         4.1261         2.6150         3.6184         7.6320        -4.0440      2368.4199      2383.6199
     2385.0589        77.5400         8.3742       117.6527       0.278408         4.5049         2.6547         3.8561         9.5349        -4.2166      2368.5720      2383.7720
     2385.2113        78.8640         6.0853       116.5206       0.331576         5.7629         2.4516         4.4532         9.0332        -3.7200      2368.7241      2383.9241
     2385.3637        81.6030        10.3719       119.5435       0.403424         5.3901         2.5462         4.7318         6.4796        -2.6288      2368.8763      2384.0763
     2385.5161        86.9570         9.5271       113.5049       0.443680         4.0458         2.4369         4.6943         4.6546        -2.6329      2369.0284      2384.2284
     2385.6685        92.5800        10.1483       110.6675       0.495584         3.5509         2.3814         4.2228         3.0915        -2.0408      2369.1805      2384.3805
     2385.8209        95.7250         9.5978       115.4066       0.427552         3.3010         2.4673         3.8966         3.1961        -1.2900      2369.3326      2384.5326
     2385.9733        96.7420         6.7893       119.3961       0.445848         3.8396         2.2964         3.8047         3.1881        -1.0796      2369.4847      2384.6847
     2386.1257        97.7420         9.0284       123.6996       0.451952         3.7121         2.3982         3.6909         3.0957        -0.3320      2369.6368      2384.8368
     2386.2781        99.4860         9.4302       114.6899       0.525408         4.0751         2.2958         3.5204         2.9571         0.1264      2369.7889      2384.9889
     2386.4305       100.1200         6.2193       116.2667       0.383152         3.9540         2.3724         3.5527         2.8280         0.3810      2369.9410      2385.1410
     2386.5829       101.8610         9.1693       111.5005       0.504016         4.0304         2.3184         3.4488         2.7635         0.3850      2370.0931      2385.2931
     2386.7353        99.6430        10.0663       108.3630       0.439528         3.7324         2.4708         3.3309         2.6916         0.3721      2370.2453      2385.4453
     2386.8877       102.6536        10.7743       105.8302       0.485624         3.5544         2.4293         3.1098         2.5730         0.3750      2370.3974      2385.5974
     2387.0401        99.6544         8.9680       109.7542       0.507824         3.6016         2.3020         3.0852         2.5244         0.1290      2370.5495      2385.7495
     2387.1925        96.6064         6.3807       111.6966       0.459392         4.1903         2.2534         3.0394         2.9317        -0.3660      2370.7016      2385.9016
     2387.3449        94.8668         7.7356       108.7876       0.407416         3.6434         2.4078         3.1263         3.0699        -1.7628      2370.8537      2386.0537
     2387.4973        94.5514         7.9186       103.5788       0.327640         5.0238         2.5499         3.7589         3.4946        -4.2520      2371.0058      2386.2058
     2387.6497        94.2464         7.5893        90.5090       0.340888         4.3218         2.5113         4.2779         4.3700        -8.2678      2371.1579      2386.3579
     2387.8021        94.0020         6.7798        88.2355       0.295368         4.2505         2.5467         4.8097         6.6874       -10.8088      2371.3100      2386.5100
     2387.9545        91.2720         5.3382        82.9386       0.325752         4.0952         2.4240         5.1979         8.4737       -10.8260      2371.4621      2386.6621
     2388.1069        93.7300         6.1599        87.4890       0.394448         4.5354         2.3506         5.4956         7.8948       -10.8399      2371.6142      2386.8142
     2388.2593        94.6180         5.5847        93.7538       0.387064         2.7415         2.3341         6.2529         5.6372       -10.2478      2371.7663      2386.9663
     2388.4117        91.8970         6.3207       116.5833       0.356248         2.4185         2.4223         6.3215         3.7729        -8.7996      2371.9184      2387.1184
     2388.5641        91.1310         4.7791       133.0685       0.353024         3.3187         2.3506         5.5482         3.3513        -7.6690      2372.0705      2387.2705
     2388.7165        85.9170        10.5996       147.7517       0.394664         3.4560         2.5722         4.9587         3.7319        -6.1690      2372.2226      2387.4226
     2388.8689        86.9910        12.9283       147.7946       0.445592         3.3618         2.6038         4.7000         4.1903        -5.1630      2372.3747      2387.5747
     2389.0213        84.6440         7.4973       148.1749       0.424176         3.6596         2.3679         4.6196         3.7992        -4.4546      2372.5268      2387.7268
     2389.1737        86.7330        12.7308       134.9507       0.409120         3.4527         2.6547         4.5248         3.4498        -4.2298      2372.6789      2387.8789
     2389.3261        88.7340         6.0476       132.0753       0.423880         3.7268         2.2959         4.4456         3.1940        -3.9770      2372.8310      2388.0310
     2389.4785        86.6420         5.0741       136.1896       0.335712         4.4323         2.3942         4.3974         2.9906        -3.4929      2372.9831      2388.1831
     2389.6309        86.1290         8.5849       133.3005       0.411384         3.9321         2.4436         4.5170         3.0386        -3.4860      2373.1352      2388.3352
     2389.7833        87.1170         8.6464       134.2829       0.427872         4.0649         2.4192         4.5716         3.0559        -3.8550      2373.2873      2388.4873
     2389.9357        87.3730         5.3664       128.2209       0.446848         3.8319         2.2236         4.4738         3.0977        -4.9720      2373.4394      2388.6394
     2390.0881        85.1430         7.4563       137.5295       0.394424         3.4481         2.4154         4.4323         3.0881        -5.8460      2373.5915      2388.7915
     2390.2405        90.5810        -1.4943       133.2838       0.286864         3.6870         2.1472         4.5421         3.1029        -6.7031      2373.7436      2388.9436
     2390.3929        92.3610         6.5809       121.5146       0.319728         3.6235         2.4962         4.7850         3.6645        -8.2268      2373.8957      2389.0957
     2390.5453        89.2750         2.2554       121.5599       0.329920         4.0982         2.2629         4.9745         4.4041       -10.2518      2374.0478      2389.2478
     2390.6977        90.6140         5.7184       125.6163       0.373648         2.9910         2.3632         5.1724         4.6719       -13.6438      2374.1999      2389.3999
     2390.8501        87.0290         7.6645       121.9419       0.372016         3.1506         2.4632         5.1571         4.5202       -15.3891      2374.3520      2389.5520
     2391.0025        86.5040         6.5425       120.4389       0.393824         2.9992         2.3708         5.0469         4.2264       -16.6718      2374.5041      2389.7041
