~Version Information Block
VERS .                 2.00:  CWLS LOG ASCII STANDARD - VERSION 2.00
WRAP .                   NO:  One line per depth step
~Well Information Block
#MNEM.UNIT        Data Type   Information
#---------- ----------------  -----------
STRT .M              0.0000:  START DEPTH
STOP .M           2699.9172:  STOP DEPTH
STEP .M              0.1524:  STEP
NULL .              -999.25:  NULL VALUE
COMP .                     :  COMPANY
WELL .              GABO-12:  WELL
FLD  .                     :  FIELD
LOC  .                     :  LOCATION
CTRY .                     :  COUNTRY
STAT .                     :  STATE
CNTY .                     :  COUNTY
API  .                     :  API NUMBER
UWI  .                     :  UNIQUE WELL ID
SRVC .                     :  SERVICE COMPANY
DATE .                     :  LOG DATE
~Curve Information Block
#MNEM.UNIT         API CODE   Curve Description
#---------- ----------------  -----------------
DEPTH.M                    :  Reference Depth
DT_COMP.US/F              0:  Comprerssional Sonic
ECART_COMP.                :  Neutron Density Seperation 
GR_COMP.GAPI              0:  Gamma Ray
NPHI_COMP.V/V             0:  Neutron
PEF_COMP.B/E              0:  Photo Electric Factor
RHOB_COMP.G/C3            0:  Bulk Density
RDeep_COMP.OHMM           0:  Deep Resistivity
RSHal_COMP.OHMM           0:  Shallow Resistivity
SP_COMP.MV                0:  Spontaneous
TVDSS_COMP.M               :  Reference TVD sub-sea log.
TVD_COMP.M                 :  Reference TVD log.
~Parameter Information Block
#MNEM.UNIT            Value   Description
#---------- ----------------  -----------
SET  .                  LCS:  
DFD  .LB/G            9.596:  Drilling fluid density
LITHSCALE.            LIMESTONE:  Neutron lithology scale
MUDBASE.                WATER:  Type of mud base
MUDTYPE.               NORMAL:  Type of mud
OPT_BSCO.LOGICAL                0:  Borehole salinity corrn option
OPT_CACO.LOGICAL                1:  Remove acquisition caliper corr?
OPT_FSCO.                   NO:  Formation salinity corrn option
OPT_HSCO.LOGICAL                1:  (Re)Apply hole size corrn option
OPT_MCCO.LOGICAL                1:  Mudcake correction option
OPT_MWCO.LOGICAL                1:  Mud weight correction option
OPT_PTCO_P.LOGICAL                1:  Pressure correction option
OPT_PTCO_T.LOGICAL                1:  Temperature correction option
OPT_SOCO.LOGICAL                1:  Standoff correction option
POST76.LOGICAL                1:  NPHI log is post Jan 1976
SALM .PPM             50000:  Salinity of mud
SALMF.PPM             50000:  Salinity of mud filtrate
SALW .PPM             50000:  Salinity of formation water
SOCN .INS               0.5:  Standoff for neutron tool
~Other Information Block
COMMENT:
$$MUX      Data from LAS tape
$$MUX      fevsbd 08/10/97 ng95603  ASCII:      OB050.fod
$$MUX
$$MUX
#        DEPTH        DT_COMP     ECART_COMP        GR_COMP      NPHI_COMP       PEF_COMP      RHOB_COMP       RDeep_COMP    RShal_COMP        SP_COMP     TVDSS_COMP       TVD_COMP 
~A
# ...
     2171.6990       107.2760         8.8536       122.9381       0.451672         2.9890         2.3899         2.0173         2.9448         4.4030      2155.6368      2170.8368
     2171.8514       107.6220         5.7586       131.5342       0.480768         3.6446         2.1866         2.0309         2.8805         5.0260      2155.7888      2170.9888
     2172.0038       106.1370         7.6975       122.0500       0.424456         3.4218         2.3774         2.0201         2.9177         5.0181      2155.9408      2171.1408
     2172.1562       106.1250         5.7888       118.1022       0.426976         3.9666         2.2778         2.0587         2.9378         5.2382      2156.0928      2171.2928
     2172.3086       104.7610         8.3525       123.5250       0.516280         3.3718         2.2572         2.1989         2.9440         5.0872      2156.2448      2171.4448
     2172.4610       104.5020         9.0810       135.8420       0.485256         3.4037         2.3453         2.3270         2.9976         4.8400      2156.3969      2171.5969
     2172.6134       106.7320         7.4333       132.8569       0.468136         3.2086         2.2914         2.2943         3.2639         4.9342      2156.5489      2171.7489
     2172.7658       106.7500         4.7681       127.9970       0.389632         3.1197         2.2890         2.2067         3.5626         4.9062      2156.7009      2171.9009
     2172.9182       108.6100         4.0919       119.8266       0.335432         3.7430         2.3455         2.1872         3.5065         5.4050      2156.8529      2172.0529
     2173.0706       109.8650         4.4702       120.8076       0.432216         3.5347         2.2032         2.2832         2.9882         5.6282      2157.0049      2172.2049
     2173.2230       107.7670         8.5934       113.8581       0.416136         3.3197         2.4361         2.2800         2.7033         5.9732      2157.1569      2172.3569
     2173.3754       106.7580         5.5713       111.4817       0.463616         3.2486         2.2059         2.1481         2.6851         6.1804      2157.3090      2172.5090
     2173.5278       106.6260         8.4631       110.0216       0.472928         3.2153         2.3349         2.0994         2.6245         6.3080      2157.4610      2172.6610
     2173.6802       106.1290         5.9604       113.8094       0.432328         3.1723         2.2775         2.0782         2.6786         6.5134      2157.6130      2172.8130
     2173.8326       105.0090         5.2853       112.1506       0.405216         3.1393         2.2889         2.0859         2.7574         6.2700      2157.7650      2172.9650
     2173.9850       104.7520         8.3486       111.8325       0.498248         3.0438         2.2870         2.0701         2.8780         5.6500      2157.9170      2173.1170
     2174.1374       105.4940         8.0823       113.3884       0.444440         3.2345         2.3634         2.0531         3.0566         4.8881      2158.0691      2173.2691
     2174.2898       105.2520         5.5206       120.0137       0.381504         3.1566         2.3402         2.0540         3.1512         4.3572      2158.2211      2173.4211
     2174.4422       104.8780         8.7736       118.8925       0.505992         3.0866         2.2954         2.1135         3.0310         4.2320      2158.3731      2173.5731
     2174.5946       104.3790         7.6559       118.3205       0.476248         2.7953         2.2890         2.2063         2.9159         3.9701      2158.5251      2173.7251
     2174.7470       108.9630         8.9759       116.8280       0.467072         2.8277         2.3703         2.2378         3.0370         3.4740      2158.6771      2173.8771
     2174.8994       110.9840         5.7329       113.9094       0.431288         2.8399         2.2678         2.2221         3.1432         3.1010      2158.8291      2174.0291
     2175.0518       110.7520         6.2357       117.5842       0.434968         3.0275         2.2868         2.2101         3.2045         3.2240      2158.9811      2174.1811
     2175.2042       101.4500         3.2243       113.6510       0.339768         2.5717         2.2949         2.5274         2.8280         2.5772      2159.1332      2174.3332
     2175.3566       100.6310         5.7064       118.9302       0.415384         2.6474         2.2930         3.0260         2.4441         1.4739      2159.2852      2174.4852
     2175.5090        99.8810         6.5269       132.0872       0.432864         3.0666         2.3049         3.4665         2.9886        -0.5319      2159.4372      2174.6372
     2175.6614        97.7670         8.3454       136.4666       0.479624         2.4113         2.3179         3.6882         4.4106        -2.4209      2159.5892      2174.7892
     2175.8138       102.3380         5.6816       125.1426       0.387744         3.1034         2.3378         3.8894         6.7909        -4.5569      2159.7412      2174.9412
     2175.9662       101.0110         9.0526       117.7638       0.387000         3.3937         2.5076         4.1509         8.5966        -6.2306      2159.8932      2175.0932
     2176.1186       102.2400         4.3581       115.6595       0.354264         4.0220         2.3275         4.5915         8.3253        -7.7141      2160.0452      2175.2452
     2176.2710       103.3660         4.5448       118.2182       0.329200         3.3762         2.3786         4.7081         7.2804        -9.3816      2160.1973      2175.3973
     2176.4234       104.3670         3.8060       117.1071       0.335944         3.3462         2.3304         4.5959         6.8722       -10.0279      2160.3493      2175.5493
     2176.5758       104.6230         4.7854       120.3349       0.372704         3.2002         2.3181         4.5315         6.7797       -10.6966      2160.5013      2175.7013
     2176.7282       105.4930         3.0143       130.0439       0.327368         3.2248         2.3051         4.5131         6.8832       -11.5839      2160.6533      2175.8533
     2176.8806       105.0040         3.1587       128.5556       0.338904         3.0871         2.2931         4.4088         7.2024       -11.9759      2160.8053      2176.0053
     2177.0330       104.5040         3.5568       134.3095       0.330072         3.4074         2.3277         4.5459         6.8568       -12.4879      2160.9573      2176.1573
     2177.1854       103.8800         4.6710       126.8218       0.404400         3.0053         2.2596         4.4101         6.8183       -12.8461      2161.1093      2176.3093
     2177.3378       103.8750         1.7767       133.1554       0.364328         2.6052         2.1816         4.4388         6.6871       -13.0782      2161.2613      2176.4613
     2177.4902       104.7430         2.2956       135.4946       0.368960         2.5474         2.1998         4.4410         6.6999       -13.2486      2161.4133      2176.6133
     2177.6426       103.6340         2.8754       143.0294       0.339240         3.0896         2.2784         4.4499         6.7813       -13.3561      2161.5653      2176.7653
     2177.7950       101.5170         2.9461       137.0606       0.320152         2.8867         2.3137         4.4054         6.8137       -13.0286      2161.7174      2176.9174
     2177.9474       103.7320         2.2919       126.8847       0.314048         3.0189         2.2912         4.3961         6.8061       -12.9149      2161.8694      2177.0694
     2178.0998       102.3860         1.2814       114.3206       0.292176         2.5607         2.2771         4.4119         6.7038       -12.4309      2162.0214      2177.2214
     2178.2522       103.6150         2.2719       113.6059       0.326720         3.2673         2.2691         4.3922         6.5701       -12.4399      2162.1734      2177.3734
     2178.4046       105.9810         5.2295       112.2132       0.396440         3.0915         2.3007         4.2005         6.5988       -11.4609      2162.3254      2177.5254
