~Version Information Block
VERS .                 2.00:  CWLS LOG ASCII STANDARD - VERSION 2.00
WRAP .                   NO:  One line per depth step
~Well Information Block
#MNEM.UNIT        Data Type   Information
#---------- ----------------  -----------
STRT .M              0.0000:  START DEPTH
STOP .M           2699.9172:  STOP DEPTH
STEP .M              0.1524:  STEP
NULL .              -999.25:  NULL VALUE
COMP .                     :  COMPANY
WELL .              GABO-12:  WELL
FLD  .                     :  FIELD
LOC  .                     :  LOCATION
CTRY .                     :  COUNTRY
STAT .                     :  STATE
CNTY .                     :  COUNTY
API  .                     :  API NUMBER
UWI  .                     :  UNIQUE WELL ID
SRVC .                     :  SERVICE COMPANY
DATE .                     :  LOG DATE
~Curve Information Block
#MNEM.UNIT         API CODE   Curve Description
#---------- ----------------  -----------------
DEPTH.M                    :  Reference Depth
DT_COMP.US/F              0:  Comprerssional Sonic
ECART_COMP.                :  Neutron Density Seperation 
GR_COMP.GAPI              0:  Gamma Ray
NPHI_COMP.V/V             0:  Neutron
PEF_COMP.B/E              0:  Photo Electric Factor
RHOB_COMP.G/C3            0:  Bulk Density
RDeep_COMP.OHMM           0:  Deep Resistivity
RSHal_COMP.OHMM           0:  Shallow Resistivity
SP_COMP.MV                0:  Spontaneous
TVDSS_COMP.M               :  Reference TVD sub-sea log.
TVD_COMP.M                 :  Reference TVD log.
~Parameter Information Block
#MNEM.UNIT            Value   Description
#---------- ----------------  -----------
SET  .                  LCS:  
DFD  .LB/G            9.596:  Drilling fluid density
LITHSCALE.            LIMESTONE:  Neutron lithology scale
MUDBASE.                WATER:  Type of mud base
MUDTYPE.               NORMAL:  Type of mud
OPT_BSCO.LOGICAL                0:  Borehole salinity corrn option
OPT_CACO.LOGICAL                1:  Remove acquisition caliper corr?
OPT_FSCO.                   NO:  Formation salinity corrn option
OPT_HSCO.LOGICAL                1:  (Re)Apply hole size corrn option
OPT_MCCO.LOGICAL                1:  Mudcake correction option
OPT_MWCO.LOGICAL                1:  Mud weight correction option
OPT_PTCO_P.LOGICAL                1:  Pressure correction option
OPT_PTCO_T.LOGICAL                1:  Temperature correction option
OPT_SOCO.LOGICAL                1:  Standoff correction option
POST76.LOGICAL                1:  NPHI log is post Jan 1976
SALM .PPM             50000:  Salinity of mud
SALMF.PPM             50000:  Salinity of mud filtrate
SALW .PPM             50000:  Salinity of formation water
SOCN .INS               0.5:  Standoff for neutron tool
~Other Information Block
COMMENT:
$$MUX      Data from LAS tape
$$MUX      fevsbd 08/10/97 ng95603  ASCII:      OB050.fod
$$MUX
$$MUX
#        DEPTH        DT_COMP     ECART_COMP        GR_COMP      NPHI_COMP       PEF_COMP      RHOB_COMP       RDeep_COMP    RShal_COMP        SP_COMP     TVDSS_COMP       TVD_COMP 
~A
# ...
     2507.7408        94.8670        -2.9377        38.4126       0.249712         2.4309         2.1369       207.2989        10.2669       -30.1199      2491.0003      2506.2003
     2507.8932        94.3790        -3.5814        42.8987       0.238096         1.9400         2.1241       192.6113         9.5597       -29.5079      2491.1524      2506.3524
     2508.0456        94.2510        -2.6013        44.2563       0.280656         2.0848         2.1022       178.2648         8.9717       -29.0506      2491.3045      2506.5045
     2508.1980        90.9020        -4.1012        41.8535       0.245288         2.2933         2.0861       165.9454         8.5623       -28.3476      2491.4566      2506.6566
     2508.3504        88.1470        -4.3250        39.6189       0.244008         2.1809         2.0771       156.5133         8.4072       -27.9512      2491.6087      2506.8087
     2508.5028        91.8450        -1.7805        38.4662       0.266816         2.3080         2.1663       145.4715         7.7662       -27.0939      2491.7608      2506.9608
     2508.6552        96.9590        -3.5787        42.6313       0.245176         2.4578         2.1124       133.8064         6.4605       -26.7586      2491.9129      2507.1129
     2508.8076        99.9760         0.0043        42.5261       0.366024         1.7963         2.0902       130.2698         5.3499       -26.3969      2492.0650      2507.2650
     2508.9600        99.7520        -2.2218        42.9555       0.315416         2.0102         2.0632       132.1060         4.6337       -26.3761      2492.2171      2507.4171
     2509.1124        99.0060        -3.0071        44.0452       0.299128         1.9932         2.0511       138.1216         4.2649       -26.5129      2492.3692      2507.5692
     2509.2648       100.7360        -2.1536        42.6275       0.318840         2.1200         2.0609       138.9180         3.9396       -26.3096      2492.5213      2507.7213
     2509.4172       102.3620        -1.2076        40.8820       0.329912         2.4077         2.0898       133.3559         3.5581       -25.9181      2492.6734      2507.8734
     2509.5696       103.4910        -0.4593        40.6636       0.331984         2.4814         2.1237       106.8544         3.0878       -25.2930      2492.8254      2508.0254
     2509.7220       102.8800        -1.9744        44.3493       0.304224         2.7171         2.0942        90.5855         2.7527       -24.7890      2492.9775      2508.1775
     2509.8744       101.8830        -2.5885        48.3341       0.302016         2.2944         2.0672        87.0475         2.5784       -23.6978      2493.1296      2508.3296
     2510.0268       101.6270        -3.7374        47.1230       0.250416         2.2176         2.0958        85.3534         2.5373       -22.7099      2493.2817      2508.4817
     2510.1792       100.2610        -4.4014        41.7711       0.244048         2.3390         2.0732        86.2239         2.4318       -21.7388      2493.4338      2508.6338
     2510.3316        99.5060        -4.2876        40.4632       0.223168         2.2100         2.1137        97.7788         2.2812       -20.9840      2493.5859      2508.7859
     2510.4840        93.9200        -5.8937        37.6704       0.205144         1.9848         2.0634        97.7500         2.0945       -19.7350      2493.7380      2508.9380
     2510.6364        94.2470        -5.2387        38.4158       0.223848         2.1298         2.0650       100.1963         2.0414       -18.1418      2493.8901      2509.0901
     2510.7888        99.2100        -4.5852        37.7395       0.251776         2.2610         2.0511       104.4667         2.0876       -16.9327      2494.0421      2509.2421
     2510.9412       102.5980        -4.1766        39.9819       0.242080         2.1995         2.0877        74.9841         2.1545       -15.6810      2494.1942      2509.3942
     2511.0936        98.7810        -3.9617        46.7278       0.254896         2.1028         2.0771        46.0654         2.1996       -14.4439      2494.3463      2509.5463
     2511.2460        96.1460        -1.7842        62.5132       0.306584         1.7171         2.0998        24.2848         2.2407       -12.8508      2494.4984      2509.6984
     2511.3984        90.9170        -2.6462        88.9171       0.278232         1.9293         2.1040        13.9797         2.1616       -11.0990      2494.6505      2509.8505
     2511.5508        89.2630         3.1862       112.1782       0.455567         2.1026         2.1000         9.4132         1.9725        -8.1140      2494.8025      2510.0025
     2511.7032        88.6300         6.5069       119.8080       0.433192         4.5969         2.3034         7.1827         1.7319        -5.3600      2494.9546      2510.1546
     2511.8556        93.0890         3.0349       117.3592       0.448872         3.9722         2.1036         5.9052         1.6457        -4.3817      2495.1067      2510.3067
     2512.0080        95.3570         7.7418       110.2154       0.497608         3.6704         2.2577         5.6619         1.7948        -3.9147      2495.2588      2510.4588
     2512.1604        92.8950         6.9070       111.8742       0.396816         3.3158         2.3840         5.4328         2.1055        -3.6680      2495.4109      2510.6109
     2512.3128        91.2630         7.4952       123.4210       0.428736         2.8964         2.3602         5.2693         2.5842        -3.6640      2495.5629      2510.7629
     2512.4652        92.2757         5.3970       133.3130       0.414120         2.6212         2.2796         5.1063         2.9491        -4.1650      2495.7150      2510.9150
     2512.6176        93.3097        11.0608       133.5239       0.448720         3.2003         2.5052         5.2528         3.3042        -5.1580      2495.8671      2511.0671
     2512.7700        94.3437         9.5393       128.6900       0.535304         3.4004         2.2848         5.3919         3.7713        -6.1639      2496.0191      2511.2191
     2512.9224        95.3777         6.2531       115.4603       0.464576         3.2820         2.2384         5.6023         4.0647        -6.9438      2496.1712      2511.3712
     2513.0748        96.4117         7.2054       106.2276       0.463008         3.4070         2.2886         5.9006         4.2604        -8.4747      2496.3233      2511.5233
     2513.2272        97.4467         6.3536        72.7593       0.443160         3.4378         2.2791         6.1014         3.8821       -10.5077      2496.4754      2511.6754
     2513.3796        98.4807         0.2823        56.0327       0.218808         4.0997         2.3494         7.4372         3.2858       -14.8769      2496.6274      2511.8274
     2513.5320        99.5147        -4.6473        40.7809       0.118792         3.0188         2.2696         9.3556         2.8961       -19.4970      2496.7795      2511.9795
     2513.6844       100.5487        -6.4061        42.2363       0.114032         2.1360         2.1896        12.1010         2.7750       -22.0269      2496.9316      2512.1316
     2513.8368       101.5827        -6.4002        38.2423       0.128880         2.1131         2.1652        15.3172         2.8653       -23.4090      2497.0836      2512.2836
     2513.9892       102.6167        -8.9660        37.1664       0.088328         2.1408         2.1045        18.2416         3.0952       -24.5330      2497.2357      2512.4357
     2514.1416       103.4930        -8.8412        35.8624       0.101888         2.3692         2.0881        22.2211         3.3867       -25.9496      2497.3878      2512.5878
     2514.2940       100.0280        -9.0516        34.0604       0.112912         2.0843         2.0592        24.3015         3.8572       -26.5790      2497.5398      2512.7398
     2514.4464       100.7440        -5.9054        35.8872       0.134824         2.0532         2.1800        23.4659         4.4383       -27.2476      2497.6919      2512.8919
