~Version Information Block
VERS .                 2.00:  CWLS LOG ASCII STANDARD - VERSION 2.00
WRAP .                   NO:  One line per depth step
~Well Information Block
#MNEM.UNIT        Data Type   Information
#---------- ----------------  -----------
STRT .M              0.0000:  START DEPTH
STOP .M           2699.9172:  STOP DEPTH
STEP .M              0.1524:  STEP
NULL .              -999.25:  NULL VALUE
COMP .                     :  COMPANY
WELL .              GABO-12:  WELL
FLD  .                     :  FIELD
LOC  .                     :  LOCATION
CTRY .                     :  COUNTRY
STAT .                     :  STATE
CNTY .                     :  COUNTY
API  .                     :  API NUMBER
UWI  .                     :  UNIQUE WELL ID
SRVC .                     :  SERVICE COMPANY
DATE .                     :  LOG DATE
~Curve Information Block
#MNEM.UNIT         API CODE   Curve Description
#---------- ----------------  -----------------
DEPTH.M                    :  Reference Depth
DT_COMP.US/F              0:  Comprerssional Sonic
ECART_COMP.                :  Neutron Density Seperation 
GR_COMP.GAPI              0:  Gamma Ray
NPHI_COMP.V/V             0:  Neutron
PEF_COMP.B/E              0:  Photo Electric Factor
RHOB_COMP.G/C3            0:  Bulk Density
RDeep_COMP.OHMM           0:  Deep Resistivity
RSHal_COMP.OHMM           0:  Shallow Resistivity
SP_COMP.MV                0:  Spontaneous
TVDSS_COMP.M               :  Reference TVD sub-sea log.
TVD_COMP.M                 :  Reference TVD log.
~Parameter Information Block
#MNEM.UNIT            Value   Description
#---------- ----------------  -----------
SET  .                  LCS:  
DFD  .LB/G            9.596:  Drilling fluid density
LITHSCALE.            LIMESTONE:  Neutron lithology scale
MUDBASE.                WATER:  Type of mud base
MUDTYPE.               NORMAL:  Type of mud
OPT_BSCO.LOGICAL                0:  Borehole salinity corrn option
OPT_CACO.LOGICAL                1:  Remove acquisition caliper corr?
OPT_FSCO.                   NO:  Formation salinity corrn option
OPT_HSCO.LOGICAL                1:  (Re)Apply hole size corrn option
OPT_MCCO.LOGICAL                1:  Mudcake correction option
OPT_MWCO.LOGICAL                1:  Mud weight correction option
OPT_PTCO_P.LOGICAL                1:  Pressure correction option
OPT_PTCO_T.LOGICAL                1:  Temperature correction option
OPT_SOCO.LOGICAL                1:  Standoff correction option
POST76.LOGICAL                1:  NPHI log is post Jan 1976
SALM .PPM             50000:  Salinity of mud
SALMF.PPM             50000:  Salinity of mud filtrate
SALW .PPM             50000:  Salinity of formation water
SOCN .INS               0.5:  Standoff for neutron tool
~Other Information Block
COMMENT:
$$MUX      Data from LAS tape
$$MUX      fevsbd 08/10/97 ng95603  ASCII:      OB050.fod
$$MUX
$$MUX
#        DEPTH        DT_COMP     ECART_COMP        GR_COMP      NPHI_COMP       PEF_COMP      RHOB_COMP       RDeep_COMP    RShal_COMP        SP_COMP     TVDSS_COMP       TVD_COMP 
~A
# ...
     2555.7468        95.9920        -0.0128        65.2853       0.292272         3.0091         2.2122         1.7795         7.9855       -44.8492      2538.9114      2554.1114
     2555.8992        94.0160        -0.4499        87.8784       0.292992         2.0280         2.1892         1.8683         7.9026       -42.6129      2539.0636      2554.2636
     2556.0516        90.9000        -0.5525       111.3264       0.290024         1.8970         2.1890         1.9424         8.2790       -40.0347      2539.2158      2554.4158
     2556.2040        89.7590         1.0603       134.6604       0.330672         2.2670         2.2019         2.0134         9.3633       -39.5626      2539.3680      2554.5680
     2556.3564        89.5020         2.3034       130.8899       0.304216         2.5587         2.3081         2.0705         9.8571       -40.2841      2539.5201      2554.7201
     2556.5088        91.9800         3.3715       121.0868       0.282176         2.9697         2.3983         2.1226         9.6090       -41.6986      2539.6723      2554.8723
     2556.6612        96.7120         4.1339       106.9037       0.299856         3.5057         2.4069         2.1498         8.6100       -42.2189      2539.8245      2555.0245
     2556.8136        98.4860         2.3478       116.3568       0.330752         2.8573         2.2661         2.1242         8.0008       -41.9879      2539.9767      2555.1767
     2556.9660        97.8800         3.1335       128.3311       0.386552         3.0683         2.2124         2.0456         7.6071       -41.3481      2540.1288      2555.3288
     2557.1184        96.5110         1.5793       132.4277       0.347320         2.9946         2.2001         2.0073         7.8143       -40.7359      2540.2810      2555.4810
     2557.2708        95.7560         0.4424       123.0340       0.289464         3.1567         2.2397         2.0100         8.4072       -40.4651      2540.4332      2555.6332
     2557.4232        95.6260         1.2798       117.8928       0.278088         3.0648         2.3005         2.0398         8.8058       -40.0106      2540.5854      2555.7854
     2557.5756        94.5090         0.4997       119.6813       0.297840         3.0273         2.2286         2.0926         8.9082       -39.9266      2540.7376      2555.9376
     2557.7280        93.3840         3.1453       152.0124       0.370416         2.8336         2.2399         2.1614         9.0866       -40.2801      2540.8897      2556.0897
     2557.8804        89.5310         4.2050       175.1555       0.334296         3.5800         2.3531         2.2225         9.6991       -40.3891      2541.0419      2556.2419
     2558.0328        89.3760         1.8458       178.4311       0.260592         3.5215         2.3580         2.2706        10.6067       -40.3096      2541.1941      2556.3941
     2558.1852        89.2510         3.1758       158.2886       0.328448         3.1956         2.3114         2.2720        11.2677       -40.4151      2541.3463      2556.5463
     2558.3376        89.6220         4.4564       142.4931       0.337928         3.8904         2.3596         2.2393        11.5835       -40.6769      2541.4985      2556.6985
     2558.4900        91.9810         2.9456       144.5544       0.316176         3.4952         2.3203         2.2112        11.1862       -41.0639      2541.6507      2556.8507
     2558.6424        93.2400         0.6584       144.9926       0.273344         3.5327         2.2773         2.1773        10.7098       -41.6691      2541.8028      2557.0028
     2558.7948        94.4900         2.3264       143.8611       0.329544         3.1015         2.2671         2.1443         9.9055       -42.0906      2541.9550      2557.1550
     2558.9472        95.3680         0.4089       136.3416       0.301232         2.9680         2.2184         2.1192         9.1619       -42.3231      2542.1072      2557.3072
     2559.0996        95.8710         2.7344       134.0351       0.384328         2.9124         2.1962         2.0922         8.7423       -41.5949      2542.2594      2557.4594
     2559.2520        95.6270         0.0353       133.5260       0.274888         3.1094         2.2436         2.0712         8.7162       -40.6406      2542.4116      2557.6116
     2559.4044        94.6330         0.7408       140.7517       0.307728         2.7450         2.2242         2.0938         9.0662       -39.8711      2542.5637      2557.7637
     2559.5568        93.0130         2.0032       138.0721       0.312960         2.5545         2.2786         2.1138         9.3527       -39.3819      2542.7159      2557.9159
     2559.7092        93.1240         1.4975       144.1568       0.301096         2.7058         2.2730         2.1428         9.3659       -39.1736      2542.8681      2558.0681
     2559.8616        92.7530         0.5013       133.9953       0.259336         2.7229         2.2928         2.1648         9.2737       -38.6889      2543.0203      2558.2203
     2560.0140        92.5020         1.3597       134.4378       0.301656         3.1912         2.2652         2.1868         8.9347       -38.2951      2543.1725      2558.3725
     2560.1664        93.4920         6.9152       115.9809       0.430960         3.2922         2.3275         2.2088         8.7911       -38.2116      2543.3247      2558.5247
     2560.3188        94.6160         3.3954       121.8455       0.338752         2.7682         2.3052         2.2358         8.6422       -38.4719      2543.4768      2558.6768
     2560.4712        93.8810         2.5598       133.5708       0.339984         2.6162         2.2614         2.2846         8.7194       -38.2706      2543.6290      2558.8290
     2560.6236        92.7590         3.1088       128.7417       0.334048         2.7836         2.2987         2.3128         8.9888       -38.2511      2543.7812      2558.9812
     2560.7760        92.1300         1.3013       127.8578       0.290352         2.5896         2.2811         2.3309         9.6060       -37.6121      2543.9334      2559.1334
     2560.9284        91.7530        -0.1352       122.5051       0.235440         2.8995         2.3008         2.3558        10.1308       -37.2796      2544.0856      2559.2856
     2561.0808        91.7500         4.3438       124.0790       0.323288         2.9526         2.3784         2.3937        10.3294       -37.1351      2544.2378      2559.4378
     2561.2332        93.1140         3.8245       124.0226       0.344832         3.6831         2.3165         2.4406         9.9898       -36.8989      2544.3900      2559.5900
     2561.3856        94.1170         3.6547       133.8666       0.343016         3.2247         2.3110         2.4896         9.7202       -36.1659      2544.5421      2559.7421
     2561.5380        93.7530         1.6627       133.2397       0.296376         3.0950         2.2892         2.5327         9.5256       -35.0569      2544.6943      2559.8943
     2561.6904        92.8820         2.7114       122.4073       0.332704         4.1902         2.2811         2.5776         9.5300       -33.8209      2544.8465      2560.0465
     2561.8428        92.9990         3.7252       121.7565       0.354824         3.6931         2.2949         2.6207         9.4804       -32.3359      2544.9987      2560.1987
     2561.9952        91.7600         1.8684       121.9603       0.295480         3.4222         2.3010         2.7142         9.4572       -30.8181      2545.1509      2560.3509
     2562.1476        91.0060         2.4221       125.6989       0.295992         3.5222         2.3278         2.8003         9.4719       -28.8508      2545.3031      2560.5031
     2562.3000        90.7520         3.6766       118.0092       0.322784         2.9149         2.3459         2.9042         9.6059       -26.9879      2545.4553      2560.6553
     2562.4524        91.1220         7.3703       116.1654       0.416248         3.4040         2.3748         3.0201         9.5574       -24.7688      2545.6075      2560.8075
