~Version Information Block
VERS .                 2.00:  CWLS LOG ASCII STANDARD - VERSION 2.00
WRAP .                   NO:  One line per depth step
~Well Information Block
#MNEM.UNIT        Data Type   Information
#---------- ----------------  -----------
STRT .M              0.0000:  START DEPTH
STOP .M           2699.9172:  STOP DEPTH
STEP .M              0.1524:  STEP
NULL .              -999.25:  NULL VALUE
COMP .                     :  COMPANY
WELL .              GABO-12:  WELL
FLD  .                     :  FIELD
LOC  .                     :  LOCATION
CTRY .                     :  COUNTRY
STAT .                     :  STATE
CNTY .                     :  COUNTY
API  .                     :  API NUMBER
UWI  .                     :  UNIQUE WELL ID
SRVC .                     :  SERVICE COMPANY
DATE .                     :  LOG DATE
~Curve Information Block
#MNEM.UNIT         API CODE   Curve Description
#---------- ----------------  -----------------
DEPTH.M                    :  Reference Depth
DT_COMP.US/F              0:  Comprerssional Sonic
ECART_COMP.                :  Neutron Density Seperation 
GR_COMP.GAPI              0:  Gamma Ray
NPHI_COMP.V/V             0:  Neutron
PEF_COMP.B/E              0:  Photo Electric Factor
RHOB_COMP.G/C3            0:  Bulk Density
RDeep_COMP.OHMM           0:  Deep Resistivity
RSHal_COMP.OHMM           0:  Shallow Resistivity
SP_COMP.MV                0:  Spontaneous
TVDSS_COMP.M               :  Reference TVD sub-sea log.
TVD_COMP.M                 :  Reference TVD log.
~Parameter Information Block
#MNEM.UNIT            Value   Description
#---------- ----------------  -----------
SET  .                  LCS:  
DFD  .LB/G            9.596:  Drilling fluid density
LITHSCALE.            LIMESTONE:  Neutron lithology scale
MUDBASE.                WATER:  Type of mud base
MUDTYPE.               NORMAL:  Type of mud
OPT_BSCO.LOGICAL                0:  Borehole salinity corrn option
OPT_CACO.LOGICAL                1:  Remove acquisition caliper corr?
OPT_FSCO.                   NO:  Formation salinity corrn option
OPT_HSCO.LOGICAL                1:  (Re)Apply hole size corrn option
OPT_MCCO.LOGICAL                1:  Mudcake correction option
OPT_MWCO.LOGICAL                1:  Mud weight correction option
OPT_PTCO_P.LOGICAL                1:  Pressure correction option
OPT_PTCO_T.LOGICAL                1:  Temperature correction option
OPT_SOCO.LOGICAL                1:  Standoff correction option
POST76.LOGICAL                1:  NPHI log is post Jan 1976
SALM .PPM             50000:  Salinity of mud
SALMF.PPM             50000:  Salinity of mud filtrate
SALW .PPM             50000:  Salinity of formation water
SOCN .INS               0.5:  Standoff for neutron tool
~Other Information Block
COMMENT:
$$MUX      Data from LAS tape
$$MUX      fevsbd 08/10/97 ng95603  ASCII:      OB050.fod
$$MUX
$$MUX
#        DEPTH        DT_COMP     ECART_COMP        GR_COMP      NPHI_COMP       PEF_COMP      RHOB_COMP       RDeep_COMP    RShal_COMP        SP_COMP     TVDSS_COMP       TVD_COMP 
~A
# ...
     2082.5450       114.7410        -1.5624        76.0989       0.307176         1.8986         2.1099         5.6635         7.1870       -15.0629      2066.5990      2081.7990
     2082.6974       114.2540        -2.1685        74.0534       0.284184         1.9833         2.1179         5.6094         6.8368       -15.0769      2066.7513      2081.9513
     2082.8498       114.6220        -1.0491        75.2413       0.335584         1.6904         2.0882         5.4751         6.4501       -15.3686      2066.9036      2082.1036
     2083.0022       113.5090        -2.5875        70.8138       0.288384         2.0421         2.0900         5.4046         6.0433       -14.8879      2067.0558      2082.2558
     2083.1546       113.1280        -2.1106        77.5613       0.291968         1.9091         2.1079         5.3445         5.4369       -13.6569      2067.2081      2082.4081
     2083.3070       114.3650        -0.7972        78.7300       0.327712         2.0439         2.1140         5.2686         4.9866       -12.3891      2067.3604      2082.5604
     2083.4594       112.3910        -1.0777        84.9618       0.291296         2.3198         2.1606         5.1926         4.7648       -11.8651      2067.5127      2082.7127
     2083.6118       112.4990         0.4278        84.9396       0.359448         2.2407         2.1223         5.2208         4.9793       -12.0286      2067.6650      2082.8650
     2083.7642       110.1440        -0.3668        94.2321       0.338176         2.3025         2.1180         5.1783         5.8619       -11.6401      2067.8173      2083.0173
     2083.9166       104.7930        -0.3799       109.2624       0.318160         2.4032         2.1507         5.0798         6.3154       -11.1231      2067.9695      2083.1695
     2084.0690       104.9980         2.1794       125.2739       0.315024         2.4625         2.2839         5.0175         5.9252        -9.8919      2068.1218      2083.3218
     2084.2214       104.2560         6.3267       142.1033       0.407256         3.2536         2.3376         5.0349         4.9756        -8.6856      2068.2741      2083.4741
     2084.3738       105.4900         3.9395       147.3379       0.357408         3.1420         2.3013         4.8535         4.5940        -8.4409      2068.4264      2083.6264
     2084.5262       110.4600         4.3366       145.7213       0.395688         3.5963         2.2574         4.6010         4.7219        -8.8249      2068.5787      2083.7787
     2084.6786       108.0200        -0.2034       137.7343       0.271008         2.7449         2.2382         4.3312         5.3718        -9.3369      2068.7310      2083.9310
     2084.8310       109.4880         3.2518       134.7059       0.427728         3.0138         2.1497         4.1276         5.7192        -9.8806      2068.8832      2084.0832
     2084.9834       115.4520         8.4847       134.1334       0.511336         2.5488         2.2720         4.0546         5.2607        -9.2471      2069.0355      2084.2355
     2085.1358       116.8640         8.5267       128.8942       0.512000         2.5450         2.2730         4.0560         3.6886        -8.0149      2069.1878      2084.3878
     2085.2882       118.2390         9.5716       123.5864       0.474304         3.6769         2.3881         4.0748         2.8050        -7.2739      2069.3401      2084.5401
     2085.4406       117.3820         5.9493       123.1472       0.494832         3.5987         2.1727         4.3170         2.9379        -7.1569      2069.4924      2084.6924
     2085.5930       110.5550         4.2733       129.7874       0.399768         3.4016         2.2474         4.4450         3.6671        -8.0061      2069.6447      2084.8447
     2085.7454       106.6560         2.6794       138.8801       0.356344         4.3791         2.2401         4.3776         5.0152        -9.6379      2069.7970      2084.9970
     2085.8978       106.7490         2.5542       135.2786       0.349056         4.0577         2.2460         4.3334         6.0855       -10.4079      2069.9492      2085.1492
     2086.0502       106.0060         3.1948       133.2987       0.333128         4.1939         2.3045         4.4411         6.0960       -11.0469      2070.1015      2085.3015
     2086.2026       107.4880         2.6709       131.1681       0.346888         3.1375         2.2554         4.7336         5.8758       -11.0649      2070.2538      2085.4538
     2086.3550       107.5000         1.0993       133.2332       0.290456         3.2203         2.2709         4.9870         5.6994       -10.8616      2070.4061      2085.6061
     2086.5074       106.1360         3.2955       132.0021       0.357456         2.8659         2.2690         5.0991         5.4887       -10.8729      2070.5584      2085.7584
     2086.6598       106.3730         3.5448       130.0784       0.391728         3.1348         2.2244         5.1645         5.3005       -10.7619      2070.7107      2085.9107
     2086.8122       106.7470         2.7994       135.9545       0.388032         3.2779         2.1932         5.1104         5.2742       -11.0219      2070.8630      2086.0630
     2086.9646       106.6260         1.7418       138.8123       0.340384         3.1242         2.2198         5.0832         5.4119       -10.9436      2071.0152      2086.2152
     2087.1170       106.7490         3.5785       147.4327       0.357856         3.0665         2.2825         5.0701         5.6501       -10.9559      2071.1675      2086.3675
     2087.2694       106.7500         1.9532       148.0387       0.339152         3.2773         2.2324         5.0720         5.6332       -10.9381      2071.3198      2086.5198
     2087.4218       107.6180         2.6873       147.4627       0.351896         2.6243         2.2479         5.0780         5.6211       -10.9509      2071.4721      2086.6721
     2087.5742       107.2530         1.5360       141.0824       0.329184         3.2817         2.2282         5.0552         5.8184       -11.5839      2071.6244      2086.8244
     2087.7266       109.3580         3.5702       136.4410       0.385544         3.2662         2.2359         5.0183         5.9847       -12.0979      2071.7767      2086.9767
     2087.8790       109.8710        -0.5136       137.5111       0.289776         3.1847         2.1914         4.9654         5.9205       -12.9839      2071.9290      2087.1290
     2088.0314       109.3790         0.9546       131.6364       0.322728         3.2128         2.2098         4.9144         5.7930       -13.4066      2072.0813      2087.2813
     2088.1838       107.6390         4.0419       135.5342       0.409304         3.4183         2.2199         4.8594         5.7176       -13.4229      2072.2336      2087.4336
     2088.3362       106.5090         5.1314       130.6199       0.461584         2.7306         2.1873         4.7886         5.6605       -13.4359      2072.3858      2087.5858
     2088.4886       106.5000         1.9061       140.7857       0.292368         3.4125         2.3080         4.7354         5.6402       -13.4796      2072.5381      2087.7381
     2088.6410       106.0040         2.8985       143.3252       0.328696         3.0420         2.2971         4.6437         5.6142       -13.0901      2072.6904      2087.8904
     2088.7934       104.6360         4.4410       150.1045       0.396456         2.6263         2.2613         4.5746         5.4255       -12.1396      2072.8427      2088.0427
     2088.9458       105.7410         2.2511       144.8488       0.334504         3.4910         2.2550         4.5304         5.1175       -11.6489      2072.9950      2088.1950
     2089.0982       106.2460         6.2212       140.6128       0.438160         2.9127         2.2808         4.5131         5.0138       -11.0379      2073.1473      2088.3473
     2089.2506       104.8860         4.6727       136.7261       0.351704         3.4586         2.3475         4.4842         5.0289       -11.2631      2073.2996      2088.4996
