~Version Information Block
VERS .                 2.00:  CWLS LOG ASCII STANDARD - VERSION 2.00
WRAP .                   NO:  One line per depth step
~Well Information Block
#MNEM.UNIT        Data Type   Information
#---------- ----------------  -----------
STRT .M              0.0000:  START DEPTH
STOP .M           2699.9172:  STOP DEPTH
STEP .M              0.1524:  STEP
NULL .              -999.25:  NULL VALUE
COMP .                     :  COMPANY
WELL .              GABO-12:  WELL
FLD  .                     :  FIELD
LOC  .                     :  LOCATION
CTRY .                     :  COUNTRY
STAT .                     :  STATE
CNTY .                     :  COUNTY
API  .                     :  API NUMBER
UWI  .                     :  UNIQUE WELL ID
SRVC .                     :  SERVICE COMPANY
DATE .                     :  LOG DATE
~Curve Information Block
#MNEM.UNIT         API CODE   Curve Description
#---------- ----------------  -----------------
DEPTH.M                    :  Reference Depth
DT_COMP.US/F              0:  Comprerssional Sonic
ECART_COMP.                :  Neutron Density Seperation 
GR_COMP.GAPI              0:  Gamma Ray
NPHI_COMP.V/V             0:  Neutron
PEF_COMP.B/E              0:  Photo Electric Factor
RHOB_COMP.G/C3            0:  Bulk Density
RDeep_COMP.OHMM           0:  Deep Resistivity
RSHal_COMP.OHMM           0:  Shallow Resistivity
SP_COMP.MV                0:  Spontaneous
TVDSS_COMP.M               :  Reference TVD sub-sea log.
TVD_COMP.M                 :  Reference TVD log.
~Parameter Information Block
#MNEM.UNIT            Value   Description
#---------- ----------------  -----------
SET  .                  LCS:  
DFD  .LB/G            9.596:  Drilling fluid density
LITHSCALE.            LIMESTONE:  Neutron lithology scale
MUDBASE.                WATER:  Type of mud base
MUDTYPE.               NORMAL:  Type of mud
OPT_BSCO.LOGICAL                0:  Borehole salinity corrn option
OPT_CACO.LOGICAL                1:  Remove acquisition caliper corr?
OPT_FSCO.                   NO:  Formation salinity corrn option
OPT_HSCO.LOGICAL                1:  (Re)Apply hole size corrn option
OPT_MCCO.LOGICAL                1:  Mudcake correction option
OPT_MWCO.LOGICAL                1:  Mud weight correction option
OPT_PTCO_P.LOGICAL                1:  Pressure correction option
OPT_PTCO_T.LOGICAL                1:  Temperature correction option
OPT_SOCO.LOGICAL                1:  Standoff correction option
POST76.LOGICAL                1:  NPHI log is post Jan 1976
SALM .PPM             50000:  Salinity of mud
SALMF.PPM             50000:  Salinity of mud filtrate
SALW .PPM             50000:  Salinity of formation water
SOCN .INS               0.5:  Standoff for neutron tool
~Other Information Block
COMMENT:
$$MUX      Data from LAS tape
$$MUX      fevsbd 08/10/97 ng95603  ASCII:      OB050.fod
$$MUX
$$MUX
#        DEPTH        DT_COMP     ECART_COMP        GR_COMP      NPHI_COMP       PEF_COMP      RHOB_COMP       RDeep_COMP    RShal_COMP        SP_COMP     TVDSS_COMP       TVD_COMP 
~A
# ...
     2343.1489        90.8630        -2.4875        50.4834       0.202536         1.9348         2.2381         2.4837        14.0460       -51.5119      2326.7318      2341.9318
     2343.3013        92.8590        -1.0914        57.5285       0.251600         1.8398         2.2261         2.4989        15.3298       -51.3979      2326.8840      2342.0840
     2343.4537        94.3630        -0.2137        77.7306       0.282752         1.8509         2.2181         2.4643        14.1367       -51.5349      2327.0361      2342.2361
     2343.6061        95.3670         0.5406        97.0515       0.307800         1.9700         2.2140         2.4352        13.2669       -51.7969      2327.1883      2342.3883
     2343.7585        96.2430        -0.2800       110.0961       0.298080         2.1704         2.1892         2.4191        13.1003       -52.0599      2327.3404      2342.5404
     2343.9109        96.8700        -1.3646       108.5801       0.287088         2.2474         2.1533         2.4200        13.8480       -52.3229      2327.4926      2342.6926
     2344.0633        96.9990        -1.6114       106.1019       0.269144         2.0585         2.1709         2.4329        14.4274       -52.3379      2327.6447      2342.8447
     2344.2157        95.5120        -2.1689        92.4172       0.257096         2.1631         2.1631         2.4399        14.8566       -52.2269      2327.7969      2342.9969
     2344.3681        96.2440        -2.1072        89.2784       0.253032         2.3941         2.1729         2.4400        15.3629       -51.7429      2327.9490      2343.1490
     2344.5205        95.8780         0.6643        84.0410       0.310536         2.1391         2.2157         2.4301        16.0535       -50.6984      2328.1012      2343.3012
     2344.6729        95.8750        -0.4178        90.5502       0.274296         2.0765         2.2220         2.4201        16.5014       -49.9589      2328.2533      2343.4533
     2344.8253        97.6110        -3.4159        86.0249       0.213488         2.1673         2.1734         2.4200        16.3225       -49.2219      2328.4055      2343.6055
     2344.9777        98.8650        -0.5764        84.0149       0.295336         2.3981         2.1790         2.4438        15.8220       -49.1049      2328.5577      2343.7577
     2345.1301        99.1230         0.0948        80.4070       0.302944         2.0945         2.1998         2.5005        15.2565       -48.3729      2328.7098      2343.9098
     2345.2825        97.6370        -0.8722        80.8006       0.297048         2.3460         2.1613         2.5645        14.7748       -47.6984      2328.8620      2344.0620
     2345.4349        97.6250        -3.1153        80.8040       0.227560         2.2428         2.1650         2.6334        14.8186       -47.0859      2329.0141      2344.2141
     2345.5873        94.5250        -0.6467        78.9023       0.267672         2.1259         2.2215         2.6826        15.5263       -46.4739      2329.1663      2344.3663
     2345.7397        90.6560        -1.1557        75.9993       0.219392         2.2163         2.2766         2.7078        15.8425       -46.1099      2329.3184      2344.5184
     2345.8921        88.1450        -1.7486        70.4466       0.188248         2.2537         2.2988         2.6852        15.7448       -45.2519      2329.4706      2344.6706
     2346.0445        86.7610        -2.1435        65.9648       0.154272         2.4375         2.3357         2.6919        17.0108       -44.3899      2329.6227      2344.8227
     2346.1969        86.2540         1.3650        64.7664       0.278992         1.7813         2.3033         2.7297        18.4435       -43.0011      2329.7749      2344.9749
     2346.3493        92.3260         4.0783        83.6338       0.359360         1.9198         2.3050         2.7736        18.8984       -41.6389      2329.9270      2345.1270
     2346.5017        95.3510        -0.1524       106.1150       0.268736         2.0113         2.2445         2.8147        16.9170       -40.1221      2330.0792      2345.2792
     2346.6541        98.8470         0.9839       114.1516       0.324544         2.6102         2.2083         2.8596        15.0787       -38.3869      2330.2313      2345.4313
     2346.8065       100.3630        -2.0356       108.4346       0.231752         2.4196         2.2120         2.9066        13.7198       -36.4019      2330.3835      2345.5835
     2346.9589        96.7790         1.5575        99.1902       0.319288         2.2692         2.2457         2.9546        12.3539       -34.0429      2330.5356      2345.7356
     2347.1113        94.3940         5.8192       104.7159       0.348768         2.7422         2.4097         2.9927        10.1993       -33.0756      2330.6878      2345.8878
     2347.2637        92.1430         5.2581       118.5558       0.304360         4.5941         2.4556         3.0972        10.0917       -32.0899      2330.8400      2346.0400
     2347.4161        91.6290         5.4385       126.5157       0.332768         3.9483         2.4173         3.1823         9.8291       -31.3509      2330.9921      2346.1921
     2347.5685        91.9970         5.3342       139.5474       0.354824         3.5522         2.3753         3.3249         9.7635       -30.2102      2331.1443      2346.3443
     2347.7209        92.0000         3.5808       137.4607       0.317304         3.7851         2.3502         3.4054        10.0001       -29.5016      2331.2964      2346.4964
     2347.8733        90.6360         4.3603       146.5892       0.325928         4.0836         2.3748         3.3911         9.6965       -28.9821      2331.4486      2346.6486
     2348.0257        90.9970         5.4116       134.6042       0.347824         3.6922         2.3909         3.2442         8.8200       -28.7736      2331.6007      2346.8007
     2348.1781        91.9920         7.0006       129.3347       0.357920         3.7336         2.4535         3.0773         9.1503       -28.6609      2331.7529      2346.9529
     2348.3305        93.4880         7.6019       118.2421       0.388752         3.6279         2.4322         2.9014         9.2125       -28.0529      2331.9050      2347.1050
     2348.4829        97.9640         2.7723       116.1809       0.310632         2.8562         2.3209         2.7462         8.8122       -27.4101      2332.0572      2347.2572
     2348.6353       102.7120         6.0069       108.4502       0.455824         2.9075         2.2406         2.7043         8.6404       -25.8059      2332.2093      2347.4093
     2348.7877       108.7020         7.3824       101.4341       0.549256         2.5400         2.1537         2.7328         7.9634       -24.5966      2332.3615      2347.5615
     2348.9401       115.4460         9.4236       101.5615       0.620432         3.0816         2.1371         2.7955         6.1704       -25.3439      2332.5136      2347.7136
     2349.0925       121.8240         7.5354        97.2865       0.695400         3.1921         1.9178         2.8000         4.8208       -28.2159      2332.6658      2347.8658
     2349.2449       116.9150        -3.7094        88.8954       0.368640         2.6295         1.9001         2.6462         4.0928       -32.4986      2332.8179      2348.0179
     2349.3973       109.0630        -7.3778        64.7025       0.221168         3.0535         1.9625         2.5309         4.8141       -36.2659      2332.9701      2348.1701
     2349.5497       100.8160        -4.5497        44.8207       0.202144         1.6503         2.1356         2.5161         7.4032       -39.4396      2333.1223      2348.3223
     2349.7021        90.0860        -1.5970        25.2039       0.241680         1.6152         2.2174         2.5805        13.3304       -41.9579      2333.2744      2348.4744
     2349.8545        89.5040        -2.0363        20.5919       0.254896         1.7688         2.1734         2.6276        15.1924       -44.1921      2333.4266      2348.6266
