~Version Information Block
VERS .                 2.00:  CWLS LOG ASCII STANDARD - VERSION 2.00
WRAP .                   NO:  One line per depth step
~Well Information Block
#MNEM.UNIT        Data Type   Information
#---------- ----------------  -----------
STRT .M              0.0000:  START DEPTH
STOP .M           2699.9172:  STOP DEPTH
STEP .M              0.1524:  STEP
NULL .              -999.25:  NULL VALUE
COMP .                     :  COMPANY
WELL .              GABO-12:  WELL
FLD  .                     :  FIELD
LOC  .                     :  LOCATION
CTRY .                     :  COUNTRY
STAT .                     :  STATE
CNTY .                     :  COUNTY
API  .                     :  API NUMBER
UWI  .                     :  UNIQUE WELL ID
SRVC .                     :  SERVICE COMPANY
DATE .                     :  LOG DATE
~Curve Information Block
#MNEM.UNIT         API CODE   Curve Description
#---------- ----------------  -----------------
DEPTH.M                    :  Reference Depth
DT_COMP.US/F              0:  Comprerssional Sonic
ECART_COMP.                :  Neutron Density Seperation 
GR_COMP.GAPI              0:  Gamma Ray
NPHI_COMP.V/V             0:  Neutron
PEF_COMP.B/E              0:  Photo Electric Factor
RHOB_COMP.G/C3            0:  Bulk Density
RDeep_COMP.OHMM           0:  Deep Resistivity
RSHal_COMP.OHMM           0:  Shallow Resistivity
SP_COMP.MV                0:  Spontaneous
TVDSS_COMP.M               :  Reference TVD sub-sea log.
TVD_COMP.M                 :  Reference TVD log.
~Parameter Information Block
#MNEM.UNIT            Value   Description
#---------- ----------------  -----------
SET  .                  LCS:  
DFD  .LB/G            9.596:  Drilling fluid density
LITHSCALE.            LIMESTONE:  Neutron lithology scale
MUDBASE.                WATER:  Type of mud base
MUDTYPE.               NORMAL:  Type of mud
OPT_BSCO.LOGICAL                0:  Borehole salinity corrn option
OPT_CACO.LOGICAL                1:  Remove acquisition caliper corr?
OPT_FSCO.                   NO:  Formation salinity corrn option
OPT_HSCO.LOGICAL                1:  (Re)Apply hole size corrn option
OPT_MCCO.LOGICAL                1:  Mudcake correction option
OPT_MWCO.LOGICAL                1:  Mud weight correction option
OPT_PTCO_P.LOGICAL                1:  Pressure correction option
OPT_PTCO_T.LOGICAL                1:  Temperature correction option
OPT_SOCO.LOGICAL                1:  Standoff correction option
POST76.LOGICAL                1:  NPHI log is post Jan 1976
SALM .PPM             50000:  Salinity of mud
SALMF.PPM             50000:  Salinity of mud filtrate
SALW .PPM             50000:  Salinity of formation water
SOCN .INS               0.5:  Standoff for neutron tool
~Other Information Block
COMMENT:
$$MUX      Data from LAS tape
$$MUX      fevsbd 08/10/97 ng95603  ASCII:      OB050.fod
$$MUX
$$MUX
#        DEPTH        DT_COMP     ECART_COMP        GR_COMP      NPHI_COMP       PEF_COMP      RHOB_COMP       RDeep_COMP    RShal_COMP        SP_COMP     TVDSS_COMP       TVD_COMP 
~A
# ...
     2212.8470       103.7770         9.8026       134.8306       0.478768         4.4823         2.3922         3.3661         3.0340        -0.4288      2196.6772      2211.8772
     2212.9994        97.6740         8.1866       137.1406       0.466104         3.2391         2.3325         3.6527         3.3871        -2.4399      2196.8292      2212.0292
     2213.1518        98.3690         6.5464       139.2432       0.445168         3.4343         2.2854         3.6867         4.4514        -4.4529      2196.9812      2212.1812
     2213.3042        95.0270         5.6009       132.8318       0.379528         3.8189         2.3475         3.6156         5.8538        -5.5671      2197.1332      2212.3332
     2213.4566        95.4960         4.3434       132.8117       0.334360         3.3320         2.3599         3.7747         6.3531        -5.5889      2197.2852      2212.4852
     2213.6090        95.8720         8.1228       126.3789       0.423280         2.8747         2.4007         4.1559         5.4821        -5.3231      2197.4372      2212.6372
     2213.7614        95.8750         5.8188       126.6127       0.324800         3.9017         2.4496         4.4417         4.3868        -5.8606      2197.5893      2212.7893
     2213.9138        98.3550         6.4878       119.8089       0.327968         4.1818         2.4778         4.5372         4.2679        -7.5831      2197.7413      2212.9413
     2214.0662        98.2510         6.3941       121.0892       0.452992         3.2456         2.2647         4.6610         4.8741        -9.4391      2197.8933      2213.0933
     2214.2186        98.1260        10.3481       121.7279       0.408368         3.4652         2.5368         4.5846         6.0734       -11.2336      2198.0453      2213.2453
     2214.3710        95.5210         3.1582       111.3051       0.348480         3.4819         2.2771         4.5790         6.3370       -13.1209      2198.1973      2213.3973
     2214.5234        96.4920         5.7057        90.2630       0.370816         2.9791         2.3673         4.6544         6.2289       -14.5436      2198.3494      2213.5494
     2214.6758        95.8800         6.1962        76.2397       0.413656         3.0137         2.3204         4.6917         6.0455       -16.3971      2198.5014      2213.7014
     2214.8282        96.1230         4.7715        69.9865       0.333648         3.0715         2.3825         4.7108         6.4031       -17.9129      2198.6534      2213.8534
     2214.9806        95.8770         2.4255        79.7300       0.242728         2.8161         2.4167         4.5880         7.5914       -19.7056      2198.8054      2214.0054
     2215.1330        95.2550         2.7572        77.8915       0.305488         2.5452         2.3287         4.2090         9.6118       -23.0809      2198.9574      2214.1574
     2215.2854        95.2500         1.8606        77.5923       0.295088         3.3485         2.3012         4.1733        10.9821       -24.7021      2199.1094      2214.3094
     2215.4378        96.1180         1.2118        72.2491       0.278136         2.9255         2.2970         4.3754        11.9652       -25.8746      2199.2615      2214.4615
     2215.5902        99.3490         0.5321        64.9197       0.286928         2.4200         2.2484         4.2768        11.4433       -26.6101      2199.4135      2214.6135
     2215.7426        99.1270         1.6245        59.0796       0.315768         2.4319         2.2549         4.1540        11.1325       -27.1556      2199.5655      2214.7655
     2215.8950        99.4970         1.9971        57.5510       0.335840         2.8348         2.2401         4.0528        11.1925       -27.6689      2199.7175      2214.9175
     2216.0474        97.6400        -0.8107        47.9731       0.269536         2.5235         2.2102         3.9915        11.8368       -27.4379      2199.8695      2215.0695
     2216.1998        96.6330        -2.7049        48.9842       0.243208         2.1768         2.1594         3.9136        12.4144       -27.2009      2200.0216      2215.2216
     2216.3522        97.3690        -3.1565        51.1863       0.219192         2.1353         2.1769         3.9100        12.6035       -27.0889      2200.1736      2215.3736
     2216.5046        99.7310        -1.4273        57.5945       0.247768         1.9227         2.2157         3.8892        11.8134       -27.3172      2200.3256      2215.5256
     2216.6570        99.0060        -1.6117        56.7284       0.248000         1.8932         2.2061         3.8682        10.9688       -27.5799      2200.4776      2215.6776
     2216.8094        98.7520        -0.1121        48.7741       0.305536         1.9892         2.1852         3.8501        10.5404       -27.1921      2200.6296      2215.8296
     2216.9618        98.3780        -0.3513        47.2656       0.302032         2.0565         2.1790         3.8490        10.7761       -26.9539      2200.7817      2215.9817
     2217.1142        98.6230        -1.8281        51.1030       0.273232         2.4756         2.1532         3.8361        11.3226       -26.7486      2200.9337      2216.1337
     2217.2666        98.9970        -3.0304        60.9231       0.252168         2.0266         2.1282         3.8340        11.3905       -26.8839      2201.0857      2216.2857
     2217.4190       101.2320        -2.8482        82.1663       0.226208         2.1063         2.1806         3.8310        10.7274       -26.7431      2201.2377      2216.4377
     2217.5714       102.6140         0.1558       105.2850       0.284528         1.8481         2.2336         3.7883         9.6744       -26.5069      2201.3897      2216.5897
     2217.7238       101.6330         1.2117       118.0367       0.341544         1.7855         2.1913         3.7493         9.2404       -26.3939      2201.5418      2216.7418
     2217.8762       101.6250         1.5176       109.1019       0.368784         2.0836         2.1612         3.7044         9.1656       -26.9019      2201.6938      2216.8938
     2218.0286       102.2450         1.3811        88.6255       0.348168         2.2179         2.1888         3.5324         9.4120       -27.3216      2201.8458      2217.0458
     2218.1810       102.2500        -0.9545        81.0488       0.287488         2.6118         2.1731         3.5320         9.8306       -27.9579      2201.9978      2217.1978
     2218.3334       102.9940         1.2620        73.4617       0.344536         2.4989         2.1889         3.5151         9.9104       -28.3171      2202.1499      2217.3499
     2218.4858       103.4960         1.6900        70.8238       0.334088         2.2321         2.2277         3.5259        10.0499       -28.7366      2202.3019      2217.5019
     2218.6382       103.2520        -1.0909        63.3868       0.305232         2.1239         2.1367         3.5290        10.0212       -28.7529      2202.4539      2217.6539
     2218.7906       102.7540        -0.5512        61.8777       0.301032         2.1071         2.1707         3.4070         9.8028       -28.9206      2202.6059      2217.8059
     2218.9430       102.3780        -0.9567        57.3058       0.291080         2.0782         2.1670         3.4258         9.6522       -28.6869      2202.7580      2217.9580
     2219.0954       102.2510        -0.9600        57.5170       0.291000         2.0780         2.1670         3.4250         9.6867       -27.9539      2202.9100      2218.1100
     2219.2478       103.3660        -0.6822        53.6710       0.308856         1.8340         2.1511         3.5669         9.8140       -27.8369      2203.0620      2218.2620
     2219.4002       103.4990        -0.3361        61.6583       0.310984         1.8211         2.1649         3.5898        10.0154       -27.7249      2203.2140      2218.4140
     2219.5526       102.1360        -0.5846        59.7420       0.301080         2.1384         2.1690         3.5870        10.3463       -27.7061      2203.3660      2218.5660
